[
  {
    "City": "Sofia", 
    "lat": "42.6979", 
    "lng": "23.3217", 
    "country": "Bulgaria", 
    "iso2": "BG", 
    "admin_name": "Sofia-Grad", 
    "capital": "primary", 
    "population": "1355142", 
    "population_proper": "1355142"
  }, 
  {
    "City": "Varna", 
    "lat": "43.2114", 
    "lng": "27.9111", 
    "country": "Bulgaria", 
    "iso2": "BG", 
    "admin_name": "Varna", 
    "capital": "admin", 
    "population": "369162", 
    "population_proper": "369162"
  }, 
  {
    "City": "Plovdiv", 
    "lat": "42.1433", 
    "lng": "24.7489", 
    "country": "Bulgaria", 
    "iso2": "BG", 
    "admin_name": "Plovdiv", 
    "capital": "admin", 
    "population": "340494", 
    "population_proper": "297685"
  }, 
  {
    "City": "Burgas", 
    "lat": "42.5000", 
    "lng": "27.4667", 
    "country": "Bulgaria", 
    "iso2": "BG", 
    "admin_name": "Burgas", 
    "capital": "admin", 
    "population": "226868", 
    "population_proper": "226868"
  }, 
  {
    "City": "Ruse", 
    "lat": "43.8445", 
    "lng": "25.9539", 
    "country": "Bulgaria", 
    "iso2": "BG", 
    "admin_name": "Ruse", 
    "capital": "admin", 
    "population": "163712", 
    "population_proper": "163712"
  }, 
  {
    "City": "Stara Zagora", 
    "lat": "42.4257", 
    "lng": "25.6346", 
    "country": "Bulgaria", 
    "iso2": "BG", 
    "admin_name": "Stara Zagora", 
    "capital": "admin", 
    "population": "158668", 
    "population_proper": "158668"
  }, 
  {
    "City": "Pleven", 
    "lat": "43.4132", 
    "lng": "24.6169", 
    "country": "Bulgaria", 
    "iso2": "BG", 
    "admin_name": "Pleven", 
    "capital": "admin", 
    "population": "123588", 
    "population_proper": "123588"
  }, 
  {
    "City": "Sliven", 
    "lat": "42.6781", 
    "lng": "26.3260", 
    "country": "Bulgaria", 
    "iso2": "BG", 
    "admin_name": "Sliven", 
    "capital": "admin", 
    "population": "107570", 
    "population_proper": "107570"
  }, 
  {
    "City": "Dobrich", 
    "lat": "43.5667", 
    "lng": "27.8333", 
    "country": "Bulgaria", 
    "iso2": "BG", 
    "admin_name": "Dobrich", 
    "capital": "admin", 
    "population": "104530", 
    "population_proper": "104530"
  }, 
  {
    "City": "Shumen", 
    "lat": "43.2700", 
    "lng": "26.9244", 
    "country": "Bulgaria", 
    "iso2": "BG", 
    "admin_name": "Shumen", 
    "capital": "admin", 
    "population": "97719", 
    "population_proper": "97719"
  }, 
  {
    "City": "Haskovo", 
    "lat": "41.9346", 
    "lng": "25.5556", 
    "country": "Bulgaria", 
    "iso2": "BG", 
    "admin_name": "Haskovo", 
    "capital": "admin", 
    "population": "93821", 
    "population_proper": "93821"
  }, 
  {
    "City": "Pazardzhik", 
    "lat": "42.1892", 
    "lng": "24.3317", 
    "country": "Bulgaria", 
    "iso2": "BG", 
    "admin_name": "Pazardzhik", 
    "capital": "admin", 
    "population": "84619", 
    "population_proper": "84619"
  }, 
  {
    "City": "Yambol", 
    "lat": "42.4824", 
    "lng": "26.5038", 
    "country": "Bulgaria", 
    "iso2": "BG", 
    "admin_name": "Yambol", 
    "capital": "admin", 
    "population": "84232", 
    "population_proper": "84232"
  }, 
  {
    "City": "Pernik", 
    "lat": "42.6097", 
    "lng": "23.0308", 
    "country": "Bulgaria", 
    "iso2": "BG", 
    "admin_name": "Pernik", 
    "capital": "admin", 
    "population": "83973", 
    "population_proper": "83973"
  }, 
  {
    "City": "Blagoevgrad", 
    "lat": "42.0119", 
    "lng": "23.0897", 
    "country": "Bulgaria", 
    "iso2": "BG", 
    "admin_name": "Blagoevgrad", 
    "capital": "admin", 
    "population": "82606", 
    "population_proper": "82606"
  }, 
  {
    "City": "Veliko Tarnovo", 
    "lat": "43.0822", 
    "lng": "25.6317", 
    "country": "Bulgaria", 
    "iso2": "BG", 
    "admin_name": "Veliko Tarnovo", 
    "capital": "admin", 
    "population": "72207", 
    "population_proper": "72207"
  }, 
  {
    "City": "Vratsa", 
    "lat": "43.2121", 
    "lng": "23.5444", 
    "country": "Bulgaria", 
    "iso2": "BG", 
    "admin_name": "Vratsa", 
    "capital": "admin", 
    "population": "69493", 
    "population_proper": "69493"
  }, 
  {
    "City": "Kardzhali", 
    "lat": "41.6400", 
    "lng": "25.3708", 
    "country": "Bulgaria", 
    "iso2": "BG", 
    "admin_name": "Kardzhali", 
    "capital": "admin", 
    "population": "66128", 
    "population_proper": "66128"
  }, 
  {
    "City": "Kyustendil", 
    "lat": "42.2811", 
    "lng": "22.6889", 
    "country": "Bulgaria", 
    "iso2": "BG", 
    "admin_name": "Kyustendil", 
    "capital": "admin", 
    "population": "63359", 
    "population_proper": "63359"
  }, 
  {
    "City": "Gabrovo", 
    "lat": "42.8711", 
    "lng": "25.3150", 
    "country": "Bulgaria", 
    "iso2": "BG", 
    "admin_name": "Gabrovo", 
    "capital": "admin", 
    "population": "62938", 
    "population_proper": "62938"
  }, 
  {
    "City": "Asenovgrad", 
    "lat": "42.0082", 
    "lng": "24.8773", 
    "country": "Bulgaria", 
    "iso2": "BG", 
    "admin_name": "Plovdiv", 
    "capital": "", 
    "population": "59793", 
    "population_proper": "59793"
  }, 
  {
    "City": "Vidin", 
    "lat": "43.9887", 
    "lng": "22.8741", 
    "country": "Bulgaria", 
    "iso2": "BG", 
    "admin_name": "Vidin", 
    "capital": "admin", 
    "population": "58018", 
    "population_proper": "58018"
  }, 
  {
    "City": "Kazanlak", 
    "lat": "42.6167", 
    "lng": "25.4000", 
    "country": "Bulgaria", 
    "iso2": "BG", 
    "admin_name": "Stara Zagora", 
    "capital": "", 
    "population": "56047", 
    "population_proper": "56047"
  }, 
  {
    "City": "Montana", 
    "lat": "43.4055", 
    "lng": "23.2242", 
    "country": "Bulgaria", 
    "iso2": "BG", 
    "admin_name": "Montana", 
    "capital": "admin", 
    "population": "49597", 
    "population_proper": "49597"
  }, 
  {
    "City": "Targovishte", 
    "lat": "43.2414", 
    "lng": "26.5719", 
    "country": "Bulgaria", 
    "iso2": "BG", 
    "admin_name": "Targovishte", 
    "capital": "admin", 
    "population": "45535", 
    "population_proper": "45535"
  }, 
  {
    "City": "Dimitrovgrad", 
    "lat": "42.0611", 
    "lng": "25.5933", 
    "country": "Bulgaria", 
    "iso2": "BG", 
    "admin_name": "Haskovo", 
    "capital": "", 
    "population": "45098", 
    "population_proper": "45098"
  }, 
  {
    "City": "Silistra", 
    "lat": "44.1186", 
    "lng": "27.2603", 
    "country": "Bulgaria", 
    "iso2": "BG", 
    "admin_name": "Silistra", 
    "capital": "admin", 
    "population": "42651", 
    "population_proper": "42651"
  }, 
  {
    "City": "Lovech", 
    "lat": "43.1342", 
    "lng": "24.7172", 
    "country": "Bulgaria", 
    "iso2": "BG", 
    "admin_name": "Lovech", 
    "capital": "admin", 
    "population": "42343", 
    "population_proper": "42343"
  }, 
  {
    "City": "Razgrad", 
    "lat": "43.5267", 
    "lng": "26.5242", 
    "country": "Bulgaria", 
    "iso2": "BG", 
    "admin_name": "Razgrad", 
    "capital": "admin", 
    "population": "41909", 
    "population_proper": "41909"
  }, 
  {
    "City": "Petrich", 
    "lat": "41.3981", 
    "lng": "23.2069", 
    "country": "Bulgaria", 
    "iso2": "BG", 
    "admin_name": "Blagoevgrad", 
    "capital": "", 
    "population": "40728", 
    "population_proper": "40728"
  }, 
  {
    "City": "Dupnitsa", 
    "lat": "42.2650", 
    "lng": "23.1185", 
    "country": "Bulgaria", 
    "iso2": "BG", 
    "admin_name": "Kyustendil", 
    "capital": "", 
    "population": "39467", 
    "population_proper": "39467"
  }, 
  {
    "City": "Gorna Oryahovitsa", 
    "lat": "43.1222", 
    "lng": "25.6897", 
    "country": "Bulgaria", 
    "iso2": "BG", 
    "admin_name": "Veliko Tarnovo", 
    "capital": "", 
    "population": "35031", 
    "population_proper": "35031"
  }, 
  {
    "City": "Smolyan", 
    "lat": "41.5753", 
    "lng": "24.7128", 
    "country": "Bulgaria", 
    "iso2": "BG", 
    "admin_name": "Smolyan", 
    "capital": "admin", 
    "population": "31548", 
    "population_proper": "31548"
  }, 
  {
    "City": "Sandanski", 
    "lat": "41.5589", 
    "lng": "23.2744", 
    "country": "Bulgaria", 
    "iso2": "BG", 
    "admin_name": "Blagoevgrad", 
    "capital": "", 
    "population": "30695", 
    "population_proper": "30695"
  }, 
  {
    "City": "Samokov", 
    "lat": "42.3381", 
    "lng": "23.5600", 
    "country": "Bulgaria", 
    "iso2": "BG", 
    "admin_name": "Sofia", 
    "capital": "", 
    "population": "29094", 
    "population_proper": "29094"
  }, 
  {
    "City": "Nova Zagora", 
    "lat": "42.4903", 
    "lng": "26.0122", 
    "country": "Bulgaria", 
    "iso2": "BG", 
    "admin_name": "Sliven", 
    "capital": "", 
    "population": "26660", 
    "population_proper": "26660"
  }, 
  {
    "City": "Karlovo", 
    "lat": "42.6420", 
    "lng": "24.8082", 
    "country": "Bulgaria", 
    "iso2": "BG", 
    "admin_name": "Plovdiv", 
    "capital": "", 
    "population": "25919", 
    "population_proper": "25919"
  }, 
  {
    "City": "Velingrad", 
    "lat": "42.0276", 
    "lng": "23.9913", 
    "country": "Bulgaria", 
    "iso2": "BG", 
    "admin_name": "Pazardzhik", 
    "capital": "minor", 
    "population": "25764", 
    "population_proper": "25764"
  }, 
  {
    "City": "Sevlievo", 
    "lat": "43.0258", 
    "lng": "25.1039", 
    "country": "Bulgaria", 
    "iso2": "BG", 
    "admin_name": "Gabrovo", 
    "capital": "", 
    "population": "25372", 
    "population_proper": "25372"
  }, 
  {
    "City": "Lom", 
    "lat": "43.8272", 
    "lng": "23.2364", 
    "country": "Bulgaria", 
    "iso2": "BG", 
    "admin_name": "Montana", 
    "capital": "minor", 
    "population": "25172", 
    "population_proper": "25172"
  }, 
  {
    "City": "Aytos", 
    "lat": "42.6990", 
    "lng": "27.2490", 
    "country": "Bulgaria", 
    "iso2": "BG", 
    "admin_name": "Burgas", 
    "capital": "", 
    "population": "24750", 
    "population_proper": "24750"
  }, 
  {
    "City": "Svishtov", 
    "lat": "43.6113", 
    "lng": "25.3569", 
    "country": "Bulgaria", 
    "iso2": "BG", 
    "admin_name": "Veliko Tarnovo", 
    "capital": "minor", 
    "population": "24459", 
    "population_proper": "24459"
  }, 
  {
    "City": "Harmanli", 
    "lat": "41.9238", 
    "lng": "25.9183", 
    "country": "Bulgaria", 
    "iso2": "BG", 
    "admin_name": "Haskovo", 
    "capital": "", 
    "population": "23932", 
    "population_proper": "23932"
  }, 
  {
    "City": "Troyan", 
    "lat": "42.8844", 
    "lng": "24.7094", 
    "country": "Bulgaria", 
    "iso2": "BG", 
    "admin_name": "Lovech", 
    "capital": "", 
    "population": "23520", 
    "population_proper": "23520"
  }, 
  {
    "City": "Botevgrad", 
    "lat": "42.9073", 
    "lng": "23.7937", 
    "country": "Bulgaria", 
    "iso2": "BG", 
    "admin_name": "Sofia", 
    "capital": "", 
    "population": "22742", 
    "population_proper": "22742"
  }, 
  {
    "City": "Gotse Delchev", 
    "lat": "41.5737", 
    "lng": "23.7291", 
    "country": "Bulgaria", 
    "iso2": "BG", 
    "admin_name": "Blagoevgrad", 
    "capital": "", 
    "population": "21969", 
    "population_proper": "21969"
  }, 
  {
    "City": "Peshtera", 
    "lat": "42.0340", 
    "lng": "24.3025", 
    "country": "Bulgaria", 
    "iso2": "BG", 
    "admin_name": "Pazardzhik", 
    "capital": "minor", 
    "population": "21824", 
    "population_proper": "21824"
  }, 
  {
    "City": "Karnobat", 
    "lat": "42.6513", 
    "lng": "26.9855", 
    "country": "Bulgaria", 
    "iso2": "BG", 
    "admin_name": "Burgas", 
    "capital": "", 
    "population": "20411", 
    "population_proper": "20411"
  }, 
  {
    "City": "Svilengrad", 
    "lat": "41.7652", 
    "lng": "26.2030", 
    "country": "Bulgaria", 
    "iso2": "BG", 
    "admin_name": "Haskovo", 
    "capital": "", 
    "population": "20390", 
    "population_proper": "20390"
  }, 
  {
    "City": "Momchilgrad", 
    "lat": "41.5297", 
    "lng": "25.4064", 
    "country": "Bulgaria", 
    "iso2": "BG", 
    "admin_name": "Kardzhali", 
    "capital": "", 
    "population": "19609", 
    "population_proper": "19609"
  }, 
  {
    "City": "Panagyurishte", 
    "lat": "42.5026", 
    "lng": "24.1802", 
    "country": "Bulgaria", 
    "iso2": "BG", 
    "admin_name": "Pazardzhik", 
    "capital": "minor", 
    "population": "18350", 
    "population_proper": "18350"
  }, 
  {
    "City": "Popovo", 
    "lat": "43.3481", 
    "lng": "26.2275", 
    "country": "Bulgaria", 
    "iso2": "BG", 
    "admin_name": "Targovishte", 
    "capital": "", 
    "population": "17703", 
    "population_proper": "17703"
  }, 
  {
    "City": "Chirpan", 
    "lat": "42.1981", 
    "lng": "25.3304", 
    "country": "Bulgaria", 
    "iso2": "BG", 
    "admin_name": "Stara Zagora", 
    "capital": "", 
    "population": "17522", 
    "population_proper": "17522"
  }, 
  {
    "City": "Rakovski", 
    "lat": "42.2884", 
    "lng": "24.9655", 
    "country": "Bulgaria", 
    "iso2": "BG", 
    "admin_name": "Plovdiv", 
    "capital": "", 
    "population": "16731", 
    "population_proper": "16731"
  }, 
  {
    "City": "Parvomay", 
    "lat": "42.0994", 
    "lng": "25.2242", 
    "country": "Bulgaria", 
    "iso2": "BG", 
    "admin_name": "Plovdiv", 
    "capital": "", 
    "population": "15518", 
    "population_proper": "15518"
  }, 
  {
    "City": "Provadia", 
    "lat": "43.1694", 
    "lng": "27.4428", 
    "country": "Bulgaria", 
    "iso2": "BG", 
    "admin_name": "Varna", 
    "capital": "", 
    "population": "15095", 
    "population_proper": "15095"
  }, 
  {
    "City": "Berkovitsa", 
    "lat": "43.2371", 
    "lng": "23.1251", 
    "country": "Bulgaria", 
    "iso2": "BG", 
    "admin_name": "Montana", 
    "capital": "minor", 
    "population": "14993", 
    "population_proper": "14993"
  }, 
  {
    "City": "Novi Pazar", 
    "lat": "43.3476", 
    "lng": "27.1981", 
    "country": "Bulgaria", 
    "iso2": "BG", 
    "admin_name": "Shumen", 
    "capital": "", 
    "population": "14931", 
    "population_proper": "14931"
  }, 
  {
    "City": "Radomir", 
    "lat": "42.5467", 
    "lng": "22.9642", 
    "country": "Bulgaria", 
    "iso2": "BG", 
    "admin_name": "Pernik", 
    "capital": "", 
    "population": "14880", 
    "population_proper": "14880"
  }, 
  {
    "City": "Ihtiman", 
    "lat": "42.4333", 
    "lng": "23.8167", 
    "country": "Bulgaria", 
    "iso2": "BG", 
    "admin_name": "Sofia", 
    "capital": "", 
    "population": "14656", 
    "population_proper": "14656"
  }, 
  {
    "City": "Pomorie", 
    "lat": "42.5569", 
    "lng": "27.6405", 
    "country": "Bulgaria", 
    "iso2": "BG", 
    "admin_name": "Burgas", 
    "capital": "minor", 
    "population": "14634", 
    "population_proper": "14634"
  }, 
  {
    "City": "Novi Iskar", 
    "lat": "42.8031", 
    "lng": "23.3436", 
    "country": "Bulgaria", 
    "iso2": "BG", 
    "admin_name": "Sofia-Grad", 
    "capital": "", 
    "population": "13768", 
    "population_proper": "13768"
  }, 
  {
    "City": "Nesebar", 
    "lat": "42.6608", 
    "lng": "27.7139", 
    "country": "Bulgaria", 
    "iso2": "BG", 
    "admin_name": "Burgas", 
    "capital": "minor", 
    "population": "13559", 
    "population_proper": "13559"
  }, 
  {
    "City": "Radnevo", 
    "lat": "42.2886", 
    "lng": "25.9336", 
    "country": "Bulgaria", 
    "iso2": "BG", 
    "admin_name": "Stara Zagora", 
    "capital": "", 
    "population": "13554", 
    "population_proper": "13554"
  }, 
  {
    "City": "Balchik", 
    "lat": "43.4078", 
    "lng": "28.1622", 
    "country": "Bulgaria", 
    "iso2": "BG", 
    "admin_name": "Dobrich", 
    "capital": "minor", 
    "population": "13393", 
    "population_proper": "13393"
  }, 
  {
    "City": "Razlog", 
    "lat": "41.8865", 
    "lng": "23.4680", 
    "country": "Bulgaria", 
    "iso2": "BG", 
    "admin_name": "Blagoevgrad", 
    "capital": "", 
    "population": "13158", 
    "population_proper": "13158"
  }, 
  {
    "City": "Byala Slatina", 
    "lat": "43.4688", 
    "lng": "23.9454", 
    "country": "Bulgaria", 
    "iso2": "BG", 
    "admin_name": "Vratsa", 
    "capital": "", 
    "population": "12935", 
    "population_proper": "12935"
  }, 
  {
    "City": "Kozloduy", 
    "lat": "43.7764", 
    "lng": "23.7294", 
    "country": "Bulgaria", 
    "iso2": "BG", 
    "admin_name": "Vratsa", 
    "capital": "minor", 
    "population": "12400", 
    "population_proper": "12400"
  }, 
  {
    "City": "Kavarna", 
    "lat": "43.4333", 
    "lng": "28.3389", 
    "country": "Bulgaria", 
    "iso2": "BG", 
    "admin_name": "Dobrich", 
    "capital": "minor", 
    "population": "12369", 
    "population_proper": "12369"
  }, 
  {
    "City": "Stamboliyski", 
    "lat": "42.1332", 
    "lng": "24.5379", 
    "country": "Bulgaria", 
    "iso2": "BG", 
    "admin_name": "Plovdiv", 
    "capital": "", 
    "population": "12346", 
    "population_proper": "12346"
  }, 
  {
    "City": "Pavlikeni", 
    "lat": "43.2375", 
    "lng": "25.3074", 
    "country": "Bulgaria", 
    "iso2": "BG", 
    "admin_name": "Veliko Tarnovo", 
    "capital": "", 
    "population": "11921", 
    "population_proper": "11921"
  }, 
  {
    "City": "Isperih", 
    "lat": "43.7204", 
    "lng": "26.8281", 
    "country": "Bulgaria", 
    "iso2": "BG", 
    "admin_name": "Razgrad", 
    "capital": "", 
    "population": "11797", 
    "population_proper": "11797"
  }, 
  {
    "City": "Mezdra", 
    "lat": "43.1425", 
    "lng": "23.7142", 
    "country": "Bulgaria", 
    "iso2": "BG", 
    "admin_name": "Vratsa", 
    "capital": "", 
    "population": "11719", 
    "population_proper": "11719"
  }, 
  {
    "City": "Kostinbrod", 
    "lat": "42.8101", 
    "lng": "23.2168", 
    "country": "Bulgaria", 
    "iso2": "BG", 
    "admin_name": "Sofia", 
    "capital": "", 
    "population": "11430", 
    "population_proper": "11430"
  }, 
  {
    "City": "Etropole", 
    "lat": "42.8333", 
    "lng": "24.0000", 
    "country": "Bulgaria", 
    "iso2": "BG", 
    "admin_name": "Sofia", 
    "capital": "", 
    "population": "11292", 
    "population_proper": "11292"
  }, 
  {
    "City": "Bankya", 
    "lat": "42.7069", 
    "lng": "23.1472", 
    "country": "Bulgaria", 
    "iso2": "BG", 
    "admin_name": "Sofia-Grad", 
    "capital": "", 
    "population": "11233", 
    "population_proper": "11233"
  }, 
  {
    "City": "Knezha", 
    "lat": "43.4931", 
    "lng": "24.0806", 
    "country": "Bulgaria", 
    "iso2": "BG", 
    "admin_name": "Vratsa", 
    "capital": "minor", 
    "population": "11124", 
    "population_proper": "11124"
  }, 
  {
    "City": "Elhovo", 
    "lat": "42.1719", 
    "lng": "26.5658", 
    "country": "Bulgaria", 
    "iso2": "BG", 
    "admin_name": "Yambol", 
    "capital": "", 
    "population": "10929", 
    "population_proper": "10929"
  }, 
  {
    "City": "Omurtag", 
    "lat": "43.1072", 
    "lng": "26.4192", 
    "country": "Bulgaria", 
    "iso2": "BG", 
    "admin_name": "Targovishte", 
    "capital": "", 
    "population": "10825", 
    "population_proper": "10825"
  }, 
  {
    "City": "Tutrakan", 
    "lat": "44.0481", 
    "lng": "26.6044", 
    "country": "Bulgaria", 
    "iso2": "BG", 
    "admin_name": "Silistra", 
    "capital": "minor", 
    "population": "10370", 
    "population_proper": "10370"
  }, 
  {
    "City": "Ardino", 
    "lat": "41.5829", 
    "lng": "25.1332", 
    "country": "Bulgaria", 
    "iso2": "BG", 
    "admin_name": "Kardzhali", 
    "capital": "", 
    "population": "10336", 
    "population_proper": "10336"
  }, 
  {
    "City": "Lukovit", 
    "lat": "43.2102", 
    "lng": "24.1629", 
    "country": "Bulgaria", 
    "iso2": "BG", 
    "admin_name": "Lovech", 
    "capital": "", 
    "population": "10316", 
    "population_proper": "10316"
  }, 
  {
    "City": "Teteven", 
    "lat": "42.9177", 
    "lng": "24.2574", 
    "country": "Bulgaria", 
    "iso2": "BG", 
    "admin_name": "Lovech", 
    "capital": "", 
    "population": "10279", 
    "population_proper": "10279"
  }, 
  {
    "City": "Kubrat", 
    "lat": "43.7967", 
    "lng": "26.5011", 
    "country": "Bulgaria", 
    "iso2": "BG", 
    "admin_name": "Razgrad", 
    "capital": "minor", 
    "population": "10011", 
    "population_proper": "10011"
  }, 
  {
    "City": "Tryavna", 
    "lat": "42.8667", 
    "lng": "25.4919", 
    "country": "Bulgaria", 
    "iso2": "BG", 
    "admin_name": "Gabrovo", 
    "capital": "", 
    "population": "9634", 
    "population_proper": "9634"
  }, 
  {
    "City": "Bansko", 
    "lat": "41.8385", 
    "lng": "23.4888", 
    "country": "Bulgaria", 
    "iso2": "BG", 
    "admin_name": "Blagoevgrad", 
    "capital": "", 
    "population": "9497", 
    "population_proper": "9497"
  }, 
  {
    "City": "Sredets", 
    "lat": "42.3461", 
    "lng": "27.1808", 
    "country": "Bulgaria", 
    "iso2": "BG", 
    "admin_name": "Burgas", 
    "capital": "", 
    "population": "9237", 
    "population_proper": "9237"
  }, 
  {
    "City": "Veliki Preslav", 
    "lat": "43.1614", 
    "lng": "26.8125", 
    "country": "Bulgaria", 
    "iso2": "BG", 
    "admin_name": "Shumen", 
    "capital": "", 
    "population": "9196", 
    "population_proper": "9196"
  }, 
  {
    "City": "Krichim", 
    "lat": "42.0426", 
    "lng": "24.4646", 
    "country": "Bulgaria", 
    "iso2": "BG", 
    "admin_name": "Plovdiv", 
    "capital": "", 
    "population": "9188", 
    "population_proper": "9188"
  }, 
  {
    "City": "Devnya", 
    "lat": "43.2180", 
    "lng": "27.5580", 
    "country": "Bulgaria", 
    "iso2": "BG", 
    "admin_name": "Varna", 
    "capital": "", 
    "population": "9036", 
    "population_proper": "9036"
  }, 
  {
    "City": "Rakitovo", 
    "lat": "41.9900", 
    "lng": "24.0872", 
    "country": "Bulgaria", 
    "iso2": "BG", 
    "admin_name": "Pazardzhik", 
    "capital": "minor", 
    "population": "8977", 
    "population_proper": "8977"
  }, 
  {
    "City": "Septemvri", 
    "lat": "42.2164", 
    "lng": "24.1250", 
    "country": "Bulgaria", 
    "iso2": "BG", 
    "admin_name": "Pazardzhik", 
    "capital": "minor", 
    "population": "8813", 
    "population_proper": "8813"
  }, 
  {
    "City": "Krumovgrad", 
    "lat": "41.4709", 
    "lng": "25.6546", 
    "country": "Bulgaria", 
    "iso2": "BG", 
    "admin_name": "Kardzhali", 
    "capital": "minor", 
    "population": "8800", 
    "population_proper": "8800"
  }, 
  {
    "City": "Belo Pole", 
    "lat": "42.0328", 
    "lng": "23.0500", 
    "country": "Bulgaria", 
    "iso2": "BG", 
    "admin_name": "Blagoevgrad", 
    "capital": "", 
    "population": "8739", 
    "population_proper": "8739"
  }, 
  {
    "City": "Lyaskovets", 
    "lat": "43.1081", 
    "lng": "25.7132", 
    "country": "Bulgaria", 
    "iso2": "BG", 
    "admin_name": "Veliko Tarnovo", 
    "capital": "", 
    "population": "8728", 
    "population_proper": "8728"
  }, 
  {
    "City": "Simeonovgrad", 
    "lat": "42.0324", 
    "lng": "25.8345", 
    "country": "Bulgaria", 
    "iso2": "BG", 
    "admin_name": "Haskovo", 
    "capital": "", 
    "population": "8539", 
    "population_proper": "8539"
  }, 
  {
    "City": "Dzhebel", 
    "lat": "41.5000", 
    "lng": "25.3000", 
    "country": "Bulgaria", 
    "iso2": "BG", 
    "admin_name": "Kardzhali", 
    "capital": "minor", 
    "population": "8514", 
    "population_proper": "8514"
  }, 
  {
    "City": "Dulovo", 
    "lat": "43.8229", 
    "lng": "27.1412", 
    "country": "Bulgaria", 
    "iso2": "BG", 
    "admin_name": "Silistra", 
    "capital": "", 
    "population": "8493", 
    "population_proper": "8493"
  }, 
  {
    "City": "Aksakovo", 
    "lat": "43.2608", 
    "lng": "27.8159", 
    "country": "Bulgaria", 
    "iso2": "BG", 
    "admin_name": "Varna", 
    "capital": "", 
    "population": "8164", 
    "population_proper": "8164"
  }, 
  {
    "City": "Belene", 
    "lat": "43.6456", 
    "lng": "25.1258", 
    "country": "Bulgaria", 
    "iso2": "BG", 
    "admin_name": "Pleven", 
    "capital": "minor", 
    "population": "8122", 
    "population_proper": "8122"
  }, 
  {
    "City": "Beloslav", 
    "lat": "43.1892", 
    "lng": "27.7050", 
    "country": "Bulgaria", 
    "iso2": "BG", 
    "admin_name": "Varna", 
    "capital": "minor", 
    "population": "8017", 
    "population_proper": "8017"
  }, 
  {
    "City": "Svoge", 
    "lat": "42.9594", 
    "lng": "23.3477", 
    "country": "Bulgaria", 
    "iso2": "BG", 
    "admin_name": "Sofia", 
    "capital": "", 
    "population": "8003", 
    "population_proper": "8003"
  }, 
  {
    "City": "Dryanovo", 
    "lat": "42.9736", 
    "lng": "25.4747", 
    "country": "Bulgaria", 
    "iso2": "BG", 
    "admin_name": "Gabrovo", 
    "capital": "", 
    "population": "7908", 
    "population_proper": "7908"
  }, 
  {
    "City": "Lyubimets", 
    "lat": "41.8445", 
    "lng": "26.0810", 
    "country": "Bulgaria", 
    "iso2": "BG", 
    "admin_name": "Haskovo", 
    "capital": "", 
    "population": "7892", 
    "population_proper": "7892"
  }, 
  {
    "City": "Tervel", 
    "lat": "43.7500", 
    "lng": "27.4000", 
    "country": "Bulgaria", 
    "iso2": "BG", 
    "admin_name": "Dobrich", 
    "capital": "minor", 
    "population": "7632", 
    "population_proper": "7632"
  }, 
  {
    "City": "Zlatograd", 
    "lat": "41.3797", 
    "lng": "25.0928", 
    "country": "Bulgaria", 
    "iso2": "BG", 
    "admin_name": "Smolyan", 
    "capital": "minor", 
    "population": "7623", 
    "population_proper": "7623"
  }, 
  {
    "City": "Dolni Chiflik", 
    "lat": "42.9931", 
    "lng": "27.7158", 
    "country": "Bulgaria", 
    "iso2": "BG", 
    "admin_name": "Varna", 
    "capital": "", 
    "population": "7557", 
    "population_proper": "7557"
  }, 
  {
    "City": "Simitli", 
    "lat": "41.8914", 
    "lng": "23.1117", 
    "country": "Bulgaria", 
    "iso2": "BG", 
    "admin_name": "Blagoevgrad", 
    "capital": "", 
    "population": "7372", 
    "population_proper": "7372"
  }, 
  {
    "City": "Pirdop", 
    "lat": "42.7000", 
    "lng": "24.1833", 
    "country": "Bulgaria", 
    "iso2": "BG", 
    "admin_name": "Sofia", 
    "capital": "", 
    "population": "7353", 
    "population_proper": "7353"
  }, 
  {
    "City": "Kuklen", 
    "lat": "42.0343", 
    "lng": "24.7878", 
    "country": "Bulgaria", 
    "iso2": "BG", 
    "admin_name": "Plovdiv", 
    "capital": "", 
    "population": "7331", 
    "population_proper": "7331"
  }, 
  {
    "City": "Slivnitsa", 
    "lat": "42.8515", 
    "lng": "23.0383", 
    "country": "Bulgaria", 
    "iso2": "BG", 
    "admin_name": "Sofia", 
    "capital": "minor", 
    "population": "7320", 
    "population_proper": "7320"
  }, 
  {
    "City": "Elin Pelin", 
    "lat": "42.6689", 
    "lng": "23.6025", 
    "country": "Bulgaria", 
    "iso2": "BG", 
    "admin_name": "Sofia", 
    "capital": "", 
    "population": "7189", 
    "population_proper": "7189"
  }, 
  {
    "City": "General Toshevo", 
    "lat": "43.7006", 
    "lng": "28.0367", 
    "country": "Bulgaria", 
    "iso2": "BG", 
    "admin_name": "Dobrich", 
    "capital": "minor", 
    "population": "7157", 
    "population_proper": "7157"
  }, 
  {
    "City": "Devin", 
    "lat": "41.7425", 
    "lng": "24.3992", 
    "country": "Bulgaria", 
    "iso2": "BG", 
    "admin_name": "Smolyan", 
    "capital": "minor", 
    "population": "6859", 
    "population_proper": "6859"
  }, 
  {
    "City": "Aydemir", 
    "lat": "44.1000", 
    "lng": "27.1667", 
    "country": "Bulgaria", 
    "iso2": "BG", 
    "admin_name": "Silistra", 
    "capital": "", 
    "population": "6784", 
    "population_proper": "6784"
  }, 
  {
    "City": "Kostenets", 
    "lat": "42.3075", 
    "lng": "23.8575", 
    "country": "Bulgaria", 
    "iso2": "BG", 
    "admin_name": "Sofia", 
    "capital": "", 
    "population": "6777", 
    "population_proper": "6777"
  }, 
  {
    "City": "Tvarditsa", 
    "lat": "42.7017", 
    "lng": "25.8975", 
    "country": "Bulgaria", 
    "iso2": "BG", 
    "admin_name": "Sliven", 
    "capital": "", 
    "population": "6711", 
    "population_proper": "6711"
  }, 
  {
    "City": "Straldzha", 
    "lat": "42.6000", 
    "lng": "26.6833", 
    "country": "Bulgaria", 
    "iso2": "BG", 
    "admin_name": "Yambol", 
    "capital": "", 
    "population": "6635", 
    "population_proper": "6635"
  }, 
  {
    "City": "Varshets", 
    "lat": "43.1953", 
    "lng": "23.2858", 
    "country": "Bulgaria", 
    "iso2": "BG", 
    "admin_name": "Montana", 
    "capital": "minor", 
    "population": "6500", 
    "population_proper": "6500"
  }, 
  {
    "City": "Tsarevo", 
    "lat": "42.1708", 
    "lng": "27.8511", 
    "country": "Bulgaria", 
    "iso2": "BG", 
    "admin_name": "Burgas", 
    "capital": "", 
    "population": "6196", 
    "population_proper": "6196"
  }, 
  {
    "City": "Kotel", 
    "lat": "42.8863", 
    "lng": "26.4500", 
    "country": "Bulgaria", 
    "iso2": "BG", 
    "admin_name": "Sliven", 
    "capital": "", 
    "population": "6021", 
    "population_proper": "6021"
  }, 
  {
    "City": "Lozen", 
    "lat": "42.6000", 
    "lng": "23.4833", 
    "country": "Bulgaria", 
    "iso2": "BG", 
    "admin_name": "Sofia-Grad", 
    "capital": "", 
    "population": "5965", 
    "population_proper": "5965"
  }, 
  {
    "City": "Yakoruda", 
    "lat": "42.0183", 
    "lng": "23.6697", 
    "country": "Bulgaria", 
    "iso2": "BG", 
    "admin_name": "Blagoevgrad", 
    "capital": "", 
    "population": "5813", 
    "population_proper": "5813"
  }, 
  {
    "City": "Kameno", 
    "lat": "42.5667", 
    "lng": "27.3000", 
    "country": "Bulgaria", 
    "iso2": "BG", 
    "admin_name": "Burgas", 
    "capital": "", 
    "population": "5788", 
    "population_proper": "5788"
  }, 
  {
    "City": "Belogradchik", 
    "lat": "43.6269", 
    "lng": "22.6833", 
    "country": "Bulgaria", 
    "iso2": "BG", 
    "admin_name": "Vidin", 
    "capital": "minor", 
    "population": "5775", 
    "population_proper": "5775"
  }, 
  {
    "City": "Elena", 
    "lat": "42.9298", 
    "lng": "25.8787", 
    "country": "Bulgaria", 
    "iso2": "BG", 
    "admin_name": "Veliko Tarnovo", 
    "capital": "", 
    "population": "5742", 
    "population_proper": "5742"
  }, 
  {
    "City": "Vetovo", 
    "lat": "43.7000", 
    "lng": "26.2667", 
    "country": "Bulgaria", 
    "iso2": "BG", 
    "admin_name": "Ruse", 
    "capital": "", 
    "population": "5707", 
    "population_proper": "5707"
  }, 
  {
    "City": "Topolovgrad", 
    "lat": "42.0842", 
    "lng": "26.3375", 
    "country": "Bulgaria", 
    "iso2": "BG", 
    "admin_name": "Haskovo", 
    "capital": "", 
    "population": "5659", 
    "population_proper": "5659"
  }, 
  {
    "City": "Bobov Dol", 
    "lat": "42.3638", 
    "lng": "22.9979", 
    "country": "Bulgaria", 
    "iso2": "BG", 
    "admin_name": "Kyustendil", 
    "capital": "minor", 
    "population": "5651", 
    "population_proper": "5651"
  }, 
  {
    "City": "Strazhitsa", 
    "lat": "43.2333", 
    "lng": "25.9667", 
    "country": "Bulgaria", 
    "iso2": "BG", 
    "admin_name": "Veliko Tarnovo", 
    "capital": "", 
    "population": "5589", 
    "population_proper": "5589"
  }, 
  {
    "City": "Riltsi", 
    "lat": "42.0401", 
    "lng": "23.0656", 
    "country": "Bulgaria", 
    "iso2": "BG", 
    "admin_name": "Blagoevgrad", 
    "capital": "", 
    "population": "5489", 
    "population_proper": "5489"
  }, 
  {
    "City": "Benkovski", 
    "lat": "41.3833", 
    "lng": "25.2667", 
    "country": "Bulgaria", 
    "iso2": "BG", 
    "admin_name": "Kardzhali", 
    "capital": "", 
    "population": "5379", 
    "population_proper": "5379"
  }, 
  {
    "City": "Oryahovo", 
    "lat": "43.7389", 
    "lng": "23.9612", 
    "country": "Bulgaria", 
    "iso2": "BG", 
    "admin_name": "Vratsa", 
    "capital": "minor", 
    "population": "5367", 
    "population_proper": "5367"
  }, 
  {
    "City": "Chepelare", 
    "lat": "41.7233", 
    "lng": "24.6861", 
    "country": "Bulgaria", 
    "iso2": "BG", 
    "admin_name": "Smolyan", 
    "capital": "", 
    "population": "5262", 
    "population_proper": "5262"
  }, 
  {
    "City": "Suvorovo", 
    "lat": "43.3300", 
    "lng": "27.5925", 
    "country": "Bulgaria", 
    "iso2": "BG", 
    "admin_name": "Varna", 
    "capital": "", 
    "population": "5214", 
    "population_proper": "5214"
  }, 
  {
    "City": "Perushtitsa", 
    "lat": "42.0561", 
    "lng": "24.5444", 
    "country": "Bulgaria", 
    "iso2": "BG", 
    "admin_name": "Plovdiv", 
    "capital": "", 
    "population": "5162", 
    "population_proper": "5162"
  }, 
  {
    "City": "Zlatitsa", 
    "lat": "42.7134", 
    "lng": "24.1391", 
    "country": "Bulgaria", 
    "iso2": "BG", 
    "admin_name": "Sofia", 
    "capital": "", 
    "population": "5139", 
    "population_proper": "5139"
  }, 
  {
    "City": "Yablanovo", 
    "lat": "42.9833", 
    "lng": "26.5500", 
    "country": "Bulgaria", 
    "iso2": "BG", 
    "admin_name": "Sliven", 
    "capital": "", 
    "population": "5137", 
    "population_proper": "5137"
  }, 
  {
    "City": "Bozhurishte", 
    "lat": "42.7500", 
    "lng": "23.2000", 
    "country": "Bulgaria", 
    "iso2": "BG", 
    "admin_name": "Sofia", 
    "capital": "", 
    "population": "5047", 
    "population_proper": "5047"
  }, 
  {
    "City": "Draginovo", 
    "lat": "42.0667", 
    "lng": "24.0167", 
    "country": "Bulgaria", 
    "iso2": "BG", 
    "admin_name": "Pazardzhik", 
    "capital": "", 
    "population": "5012", 
    "population_proper": "5012"
  }, 
  {
    "City": "Bistritsa", 
    "lat": "42.5861", 
    "lng": "23.3600", 
    "country": "Bulgaria", 
    "iso2": "BG", 
    "admin_name": "Sofia-Grad", 
    "capital": "", 
    "population": "4988", 
    "population_proper": "4988"
  }, 
  {
    "City": "Polski Trambesh", 
    "lat": "43.3676", 
    "lng": "25.6319", 
    "country": "Bulgaria", 
    "iso2": "BG", 
    "admin_name": "Veliko Tarnovo", 
    "capital": "", 
    "population": "4980", 
    "population_proper": "4980"
  }, 
  {
    "City": "Dalgopol", 
    "lat": "43.0498", 
    "lng": "27.3463", 
    "country": "Bulgaria", 
    "iso2": "BG", 
    "admin_name": "Varna", 
    "capital": "", 
    "population": "4958", 
    "population_proper": "4958"
  }, 
  {
    "City": "Rozino", 
    "lat": "42.7000", 
    "lng": "24.5500", 
    "country": "Bulgaria", 
    "iso2": "BG", 
    "admin_name": "Plovdiv", 
    "capital": "", 
    "population": "4952", 
    "population_proper": "4952"
  }, 
  {
    "City": "Sozopol", 
    "lat": "42.4187", 
    "lng": "27.6943", 
    "country": "Bulgaria", 
    "iso2": "BG", 
    "admin_name": "Burgas", 
    "capital": "minor", 
    "population": "4837", 
    "population_proper": "4837"
  }, 
  {
    "City": "Dolna Banya", 
    "lat": "42.3000", 
    "lng": "23.7667", 
    "country": "Bulgaria", 
    "iso2": "BG", 
    "admin_name": "Sofia", 
    "capital": "", 
    "population": "4810", 
    "population_proper": "4810"
  }, 
  {
    "City": "Logodazh", 
    "lat": "41.9892", 
    "lng": "22.9358", 
    "country": "Bulgaria", 
    "iso2": "BG", 
    "admin_name": "Blagoevgrad", 
    "capital": "", 
    "population": "4745", 
    "population_proper": "4745"
  }, 
  {
    "City": "Koynare", 
    "lat": "43.3573", 
    "lng": "24.1450", 
    "country": "Bulgaria", 
    "iso2": "BG", 
    "admin_name": "Pleven", 
    "capital": "", 
    "population": "4700", 
    "population_proper": "4700"
  }, 
  {
    "City": "Trastenik", 
    "lat": "43.5207", 
    "lng": "24.4716", 
    "country": "Bulgaria", 
    "iso2": "BG", 
    "admin_name": "Pleven", 
    "capital": "", 
    "population": "4560", 
    "population_proper": "4560"
  }, 
  {
    "City": "Dolni Dabnik", 
    "lat": "43.4089", 
    "lng": "24.4402", 
    "country": "Bulgaria", 
    "iso2": "BG", 
    "admin_name": "Pleven", 
    "capital": "", 
    "population": "4548", 
    "population_proper": "4548"
  }, 
  {
    "City": "Kazichene", 
    "lat": "42.6667", 
    "lng": "23.4667", 
    "country": "Bulgaria", 
    "iso2": "BG", 
    "admin_name": "Sofia-Grad", 
    "capital": "", 
    "population": "4519", 
    "population_proper": "4519"
  }, 
  {
    "City": "Dve Mogili", 
    "lat": "43.6000", 
    "lng": "25.8667", 
    "country": "Bulgaria", 
    "iso2": "BG", 
    "admin_name": "Ruse", 
    "capital": "minor", 
    "population": "4463", 
    "population_proper": "4463"
  }, 
  {
    "City": "Kostandovo", 
    "lat": "42.0167", 
    "lng": "24.1167", 
    "country": "Bulgaria", 
    "iso2": "BG", 
    "admin_name": "Pazardzhik", 
    "capital": "", 
    "population": "4456", 
    "population_proper": "4456"
  }, 
  {
    "City": "Ignatievo", 
    "lat": "43.2500", 
    "lng": "27.7667", 
    "country": "Bulgaria", 
    "iso2": "BG", 
    "admin_name": "Varna", 
    "capital": "", 
    "population": "4426", 
    "population_proper": "4426"
  }, 
  {
    "City": "Kalipetrovo", 
    "lat": "44.0833", 
    "lng": "27.2333", 
    "country": "Bulgaria", 
    "iso2": "BG", 
    "admin_name": "Silistra", 
    "capital": "", 
    "population": "4412", 
    "population_proper": "4412"
  }, 
  {
    "City": "Shivachevo", 
    "lat": "42.6833", 
    "lng": "26.0333", 
    "country": "Bulgaria", 
    "iso2": "BG", 
    "admin_name": "Sliven", 
    "capital": "", 
    "population": "4387", 
    "population_proper": "4387"
  }, 
  {
    "City": "Varbitsa", 
    "lat": "42.9931", 
    "lng": "26.6721", 
    "country": "Bulgaria", 
    "iso2": "BG", 
    "admin_name": "Shumen", 
    "capital": "", 
    "population": "4379", 
    "population_proper": "4379"
  }, 
  {
    "City": "Pravets", 
    "lat": "42.8944", 
    "lng": "23.9156", 
    "country": "Bulgaria", 
    "iso2": "BG", 
    "admin_name": "Sofia", 
    "capital": "", 
    "population": "4363", 
    "population_proper": "4363"
  }, 
  {
    "City": "Nikopol", 
    "lat": "43.6986", 
    "lng": "24.8924", 
    "country": "Bulgaria", 
    "iso2": "BG", 
    "admin_name": "Pleven", 
    "capital": "minor", 
    "population": "4346", 
    "population_proper": "4346"
  }, 
  {
    "City": "Nedelino", 
    "lat": "41.4597", 
    "lng": "25.0770", 
    "country": "Bulgaria", 
    "iso2": "BG", 
    "admin_name": "Smolyan", 
    "capital": "minor", 
    "population": "4339", 
    "population_proper": "4339"
  }, 
  {
    "City": "Slavyanovo", 
    "lat": "43.4652", 
    "lng": "24.8722", 
    "country": "Bulgaria", 
    "iso2": "BG", 
    "admin_name": "Pleven", 
    "capital": "", 
    "population": "4335", 
    "population_proper": "4335"
  }, 
  {
    "City": "Strelcha", 
    "lat": "42.5064", 
    "lng": "24.3211", 
    "country": "Bulgaria", 
    "iso2": "BG", 
    "admin_name": "Pazardzhik", 
    "capital": "", 
    "population": "4277", 
    "population_proper": "4277"
  }, 
  {
    "City": "Glodzhevo", 
    "lat": "43.7329", 
    "lng": "26.3878", 
    "country": "Bulgaria", 
    "iso2": "BG", 
    "admin_name": "Ruse", 
    "capital": "", 
    "population": "4249", 
    "population_proper": "4249"
  }, 
  {
    "City": "Godech", 
    "lat": "43.0150", 
    "lng": "23.0442", 
    "country": "Bulgaria", 
    "iso2": "BG", 
    "admin_name": "Sofia", 
    "capital": "minor", 
    "population": "4209", 
    "population_proper": "4209"
  }, 
  {
    "City": "Bukovlak", 
    "lat": "43.4500", 
    "lng": "24.6167", 
    "country": "Bulgaria", 
    "iso2": "BG", 
    "admin_name": "Pleven", 
    "capital": "", 
    "population": "4207", 
    "population_proper": "4207"
  }, 
  {
    "City": "Letnitsa", 
    "lat": "43.3167", 
    "lng": "25.0667", 
    "country": "Bulgaria", 
    "iso2": "BG", 
    "admin_name": "Lovech", 
    "capital": "", 
    "population": "4204", 
    "population_proper": "4204"
  }, 
  {
    "City": "Bratsigovo", 
    "lat": "42.0231", 
    "lng": "24.3696", 
    "country": "Bulgaria", 
    "iso2": "BG", 
    "admin_name": "Pazardzhik", 
    "capital": "", 
    "population": "4072", 
    "population_proper": "4072"
  }, 
  {
    "City": "Malo Konare", 
    "lat": "42.2000", 
    "lng": "24.4333", 
    "country": "Bulgaria", 
    "iso2": "BG", 
    "admin_name": "Pazardzhik", 
    "capital": "", 
    "population": "4067", 
    "population_proper": "4067"
  }, 
  {
    "City": "Sapareva Banya", 
    "lat": "42.2874", 
    "lng": "23.2589", 
    "country": "Bulgaria", 
    "iso2": "BG", 
    "admin_name": "Kyustendil", 
    "capital": "", 
    "population": "4060", 
    "population_proper": "4060"
  }, 
  {
    "City": "Belovo", 
    "lat": "42.2146", 
    "lng": "24.0201", 
    "country": "Bulgaria", 
    "iso2": "BG", 
    "admin_name": "Pazardzhik", 
    "capital": "", 
    "population": "4057", 
    "population_proper": "4057"
  }, 
  {
    "City": "Dyankovo", 
    "lat": "43.6167", 
    "lng": "26.6000", 
    "country": "Bulgaria", 
    "iso2": "BG", 
    "admin_name": "Razgrad", 
    "capital": "", 
    "population": "4055", 
    "population_proper": "4055"
  }, 
  {
    "City": "Breznik", 
    "lat": "42.7400", 
    "lng": "22.9083", 
    "country": "Bulgaria", 
    "iso2": "BG", 
    "admin_name": "Pernik", 
    "capital": "", 
    "population": "4020", 
    "population_proper": "4020"
  }, 
  {
    "City": "Trud", 
    "lat": "42.2333", 
    "lng": "24.7333", 
    "country": "Bulgaria", 
    "iso2": "BG", 
    "admin_name": "Plovdiv", 
    "capital": "", 
    "population": "4017", 
    "population_proper": "4017"
  }, 
  {
    "City": "Smyadovo", 
    "lat": "43.0667", 
    "lng": "27.0167", 
    "country": "Bulgaria", 
    "iso2": "BG", 
    "admin_name": "Shumen", 
    "capital": "", 
    "population": "4009", 
    "population_proper": "4009"
  }, 
  {
    "City": "Rudozem", 
    "lat": "41.4892", 
    "lng": "24.8454", 
    "country": "Bulgaria", 
    "iso2": "BG", 
    "admin_name": "Smolyan", 
    "capital": "minor", 
    "population": "3981", 
    "population_proper": "3981"
  }, 
  {
    "City": "Slivo Pole", 
    "lat": "43.9419", 
    "lng": "26.2064", 
    "country": "Bulgaria", 
    "iso2": "BG", 
    "admin_name": "Ruse", 
    "capital": "minor", 
    "population": "3926", 
    "population_proper": "3926"
  }, 
  {
    "City": "Zavet", 
    "lat": "43.7591", 
    "lng": "26.6751", 
    "country": "Bulgaria", 
    "iso2": "BG", 
    "admin_name": "Razgrad", 
    "capital": "minor", 
    "population": "3920", 
    "population_proper": "3920"
  }, 
  {
    "City": "Belozem", 
    "lat": "42.2000", 
    "lng": "25.0333", 
    "country": "Bulgaria", 
    "iso2": "BG", 
    "admin_name": "Plovdiv", 
    "capital": "", 
    "population": "3919", 
    "population_proper": "3919"
  }, 
  {
    "City": "Debelets", 
    "lat": "43.0438", 
    "lng": "25.6218", 
    "country": "Bulgaria", 
    "iso2": "BG", 
    "admin_name": "Veliko Tarnovo", 
    "capital": "", 
    "population": "3907", 
    "population_proper": "3907"
  }, 
  {
    "City": "Breznitsa", 
    "lat": "41.6719", 
    "lng": "23.6580", 
    "country": "Bulgaria", 
    "iso2": "BG", 
    "admin_name": "Blagoevgrad", 
    "capital": "", 
    "population": "3876", 
    "population_proper": "3876"
  }, 
  {
    "City": "Ivaylovgrad", 
    "lat": "41.5281", 
    "lng": "26.1244", 
    "country": "Bulgaria", 
    "iso2": "BG", 
    "admin_name": "Haskovo", 
    "capital": "", 
    "population": "3816", 
    "population_proper": "3816"
  }, 
  {
    "City": "Tsalapitsa", 
    "lat": "42.1833", 
    "lng": "24.5667", 
    "country": "Bulgaria", 
    "iso2": "BG", 
    "admin_name": "Plovdiv", 
    "capital": "", 
    "population": "3785", 
    "population_proper": "3785"
  }, 
  {
    "City": "Sarnitsa", 
    "lat": "41.7375", 
    "lng": "24.0243", 
    "country": "Bulgaria", 
    "iso2": "BG", 
    "admin_name": "Pazardzhik", 
    "capital": "minor", 
    "population": "3688", 
    "population_proper": "3688"
  }, 
  {
    "City": "Marten", 
    "lat": "43.9204", 
    "lng": "26.0848", 
    "country": "Bulgaria", 
    "iso2": "BG", 
    "admin_name": "Ruse", 
    "capital": "", 
    "population": "3672", 
    "population_proper": "3672"
  }, 
  {
    "City": "Kresna", 
    "lat": "41.7202", 
    "lng": "23.1608", 
    "country": "Bulgaria", 
    "iso2": "BG", 
    "admin_name": "Blagoevgrad", 
    "capital": "", 
    "population": "3640", 
    "population_proper": "3640"
  }, 
  {
    "City": "Sungurlare", 
    "lat": "42.7619", 
    "lng": "26.7736", 
    "country": "Bulgaria", 
    "iso2": "BG", 
    "admin_name": "Burgas", 
    "capital": "", 
    "population": "3625", 
    "population_proper": "3625"
  }, 
  {
    "City": "Vladaya", 
    "lat": "42.6333", 
    "lng": "23.2000", 
    "country": "Bulgaria", 
    "iso2": "BG", 
    "admin_name": "Sofia-Grad", 
    "capital": "", 
    "population": "3558", 
    "population_proper": "3558"
  }, 
  {
    "City": "Stara Kresna", 
    "lat": "41.7900", 
    "lng": "23.1808", 
    "country": "Bulgaria", 
    "iso2": "BG", 
    "admin_name": "Blagoevgrad", 
    "capital": "", 
    "population": "3534", 
    "population_proper": "3534"
  }, 
  {
    "City": "Brestovene", 
    "lat": "43.7667", 
    "lng": "26.5833", 
    "country": "Bulgaria", 
    "iso2": "BG", 
    "admin_name": "Razgrad", 
    "capital": "", 
    "population": "3533", 
    "population_proper": "3533"
  }, 
  {
    "City": "Chorbadzhiysko", 
    "lat": "41.3736", 
    "lng": "25.4065", 
    "country": "Bulgaria", 
    "iso2": "BG", 
    "admin_name": "Kardzhali", 
    "capital": "", 
    "population": "3518", 
    "population_proper": "3518"
  }, 
  {
    "City": "Iskar", 
    "lat": "43.4500", 
    "lng": "24.2667", 
    "country": "Bulgaria", 
    "iso2": "BG", 
    "admin_name": "Pleven", 
    "capital": "", 
    "population": "3512", 
    "population_proper": "3512"
  }, 
  {
    "City": "Yasenovets", 
    "lat": "43.5733", 
    "lng": "26.6247", 
    "country": "Bulgaria", 
    "iso2": "BG", 
    "admin_name": "Razgrad", 
    "capital": "", 
    "population": "3502", 
    "population_proper": "3502"
  }, 
  {
    "City": "Kran", 
    "lat": "42.6667", 
    "lng": "25.3833", 
    "country": "Bulgaria", 
    "iso2": "BG", 
    "admin_name": "Stara Zagora", 
    "capital": "", 
    "population": "3501", 
    "population_proper": "3501"
  }, 
  {
    "City": "Pokrovnik", 
    "lat": "41.9823", 
    "lng": "23.0538", 
    "country": "Bulgaria", 
    "iso2": "BG", 
    "admin_name": "Blagoevgrad", 
    "capital": "", 
    "population": "3481", 
    "population_proper": "3481"
  }, 
  {
    "City": "Dolna Mitropolia", 
    "lat": "43.4678", 
    "lng": "24.5206", 
    "country": "Bulgaria", 
    "iso2": "BG", 
    "admin_name": "Pleven", 
    "capital": "", 
    "population": "3469", 
    "population_proper": "3469"
  }, 
  {
    "City": "Primorsko", 
    "lat": "42.2669", 
    "lng": "27.7550", 
    "country": "Bulgaria", 
    "iso2": "BG", 
    "admin_name": "Burgas", 
    "capital": "minor", 
    "population": "3442", 
    "population_proper": "3442"
  }, 
  {
    "City": "Selanovtsi", 
    "lat": "43.6833", 
    "lng": "24.0167", 
    "country": "Bulgaria", 
    "iso2": "BG", 
    "admin_name": "Vratsa", 
    "capital": "", 
    "population": "3440", 
    "population_proper": "3440"
  }, 
  {
    "City": "Kochan", 
    "lat": "41.5833", 
    "lng": "24.0333", 
    "country": "Bulgaria", 
    "iso2": "BG", 
    "admin_name": "Blagoevgrad", 
    "capital": "", 
    "population": "3437", 
    "population_proper": "3437"
  }, 
  {
    "City": "Zarnevo", 
    "lat": "43.6333", 
    "lng": "27.3333", 
    "country": "Bulgaria", 
    "iso2": "BG", 
    "admin_name": "Dobrich", 
    "capital": "", 
    "population": "3419", 
    "population_proper": "3419"
  }, 
  {
    "City": "Vrachesh", 
    "lat": "42.8921", 
    "lng": "23.7494", 
    "country": "Bulgaria", 
    "iso2": "BG", 
    "admin_name": "Sofia", 
    "capital": "", 
    "population": "3418", 
    "population_proper": "3418"
  }, 
  {
    "City": "Gulyantsi", 
    "lat": "43.6371", 
    "lng": "24.6904", 
    "country": "Bulgaria", 
    "iso2": "BG", 
    "admin_name": "Pleven", 
    "capital": "minor", 
    "population": "3407", 
    "population_proper": "3407"
  }, 
  {
    "City": "Yagodovo", 
    "lat": "42.1000", 
    "lng": "24.8500", 
    "country": "Bulgaria", 
    "iso2": "BG", 
    "admin_name": "Plovdiv", 
    "capital": "", 
    "population": "3385", 
    "population_proper": "3385"
  }, 
  {
    "City": "Maglizh", 
    "lat": "42.6083", 
    "lng": "25.5456", 
    "country": "Bulgaria", 
    "iso2": "BG", 
    "admin_name": "Stara Zagora", 
    "capital": "", 
    "population": "3371", 
    "population_proper": "3371"
  }, 
  {
    "City": "Valchedram", 
    "lat": "43.6961", 
    "lng": "23.4448", 
    "country": "Bulgaria", 
    "iso2": "BG", 
    "admin_name": "Montana", 
    "capital": "minor", 
    "population": "3364", 
    "population_proper": "3364"
  }, 
  {
    "City": "Krivodol", 
    "lat": "43.3717", 
    "lng": "23.4813", 
    "country": "Bulgaria", 
    "iso2": "BG", 
    "admin_name": "Vratsa", 
    "capital": "", 
    "population": "3346", 
    "population_proper": "3346"
  }, 
  {
    "City": "Belitsa", 
    "lat": "41.9478", 
    "lng": "23.5629", 
    "country": "Bulgaria", 
    "iso2": "BG", 
    "admin_name": "Blagoevgrad", 
    "capital": "", 
    "population": "3337", 
    "population_proper": "3337"
  }, 
  {
    "City": "Aleko Konstantinovo", 
    "lat": "42.1597", 
    "lng": "24.2844", 
    "country": "Bulgaria", 
    "iso2": "BG", 
    "admin_name": "Pazardzhik", 
    "capital": "", 
    "population": "3324", 
    "population_proper": "3324"
  }, 
  {
    "City": "Yoakim-Gruevo", 
    "lat": "42.1167", 
    "lng": "24.5667", 
    "country": "Bulgaria", 
    "iso2": "BG", 
    "admin_name": "Plovdiv", 
    "capital": "", 
    "population": "3321", 
    "population_proper": "3321"
  }, 
  {
    "City": "Nikolaevo", 
    "lat": "42.6296", 
    "lng": "25.7888", 
    "country": "Bulgaria", 
    "iso2": "BG", 
    "admin_name": "Stara Zagora", 
    "capital": "", 
    "population": "3298", 
    "population_proper": "3298"
  }, 
  {
    "City": "Shabla", 
    "lat": "43.5333", 
    "lng": "28.5333", 
    "country": "Bulgaria", 
    "iso2": "BG", 
    "admin_name": "Dobrich", 
    "capital": "minor", 
    "population": "3276", 
    "population_proper": "3276"
  }, 
  {
    "City": "Dragoman", 
    "lat": "42.9217", 
    "lng": "22.9297", 
    "country": "Bulgaria", 
    "iso2": "BG", 
    "admin_name": "Sofia", 
    "capital": "minor", 
    "population": "3264", 
    "population_proper": "3264"
  }, 
  {
    "City": "Smirnenski", 
    "lat": "43.7667", 
    "lng": "26.3000", 
    "country": "Bulgaria", 
    "iso2": "BG", 
    "admin_name": "Ruse", 
    "capital": "", 
    "population": "3252", 
    "population_proper": "3252"
  }, 
  {
    "City": "Yasenkovo", 
    "lat": "43.5456", 
    "lng": "26.8381", 
    "country": "Bulgaria", 
    "iso2": "BG", 
    "admin_name": "Shumen", 
    "capital": "", 
    "population": "3246", 
    "population_proper": "3246"
  }, 
  {
    "City": "Branipole", 
    "lat": "42.0833", 
    "lng": "24.7500", 
    "country": "Bulgaria", 
    "iso2": "BG", 
    "admin_name": "Plovdiv", 
    "capital": "", 
    "population": "3240", 
    "population_proper": "3240"
  }, 
  {
    "City": "Kaolinovo", 
    "lat": "43.6167", 
    "lng": "27.0917", 
    "country": "Bulgaria", 
    "iso2": "BG", 
    "admin_name": "Shumen", 
    "capital": "", 
    "population": "3227", 
    "population_proper": "3227"
  }, 
  {
    "City": "Sveti Vlas", 
    "lat": "42.7167", 
    "lng": "27.7667", 
    "country": "Bulgaria", 
    "iso2": "BG", 
    "admin_name": "Burgas", 
    "capital": "", 
    "population": "3226", 
    "population_proper": "3226"
  }, 
  {
    "City": "Valchidol", 
    "lat": "43.4000", 
    "lng": "27.5500", 
    "country": "Bulgaria", 
    "iso2": "BG", 
    "admin_name": "Varna", 
    "capital": "", 
    "population": "3218", 
    "population_proper": "3218"
  }, 
  {
    "City": "Gurkovo", 
    "lat": "42.6606", 
    "lng": "25.7919", 
    "country": "Bulgaria", 
    "iso2": "BG", 
    "admin_name": "Stara Zagora", 
    "capital": "", 
    "population": "3207", 
    "population_proper": "3207"
  }, 
  {
    "City": "Ezerche", 
    "lat": "43.5500", 
    "lng": "26.3167", 
    "country": "Bulgaria", 
    "iso2": "BG", 
    "admin_name": "Razgrad", 
    "capital": "", 
    "population": "3177", 
    "population_proper": "3177"
  }, 
  {
    "City": "Ivaylo", 
    "lat": "42.2167", 
    "lng": "24.3333", 
    "country": "Bulgaria", 
    "iso2": "BG", 
    "admin_name": "Pazardzhik", 
    "capital": "", 
    "population": "3149", 
    "population_proper": "3149"
  }, 
  {
    "City": "Roman", 
    "lat": "43.1500", 
    "lng": "23.9167", 
    "country": "Bulgaria", 
    "iso2": "BG", 
    "admin_name": "Vratsa", 
    "capital": "", 
    "population": "3131", 
    "population_proper": "3131"
  }, 
  {
    "City": "Mizia", 
    "lat": "43.6833", 
    "lng": "23.8500", 
    "country": "Bulgaria", 
    "iso2": "BG", 
    "admin_name": "Vratsa", 
    "capital": "minor", 
    "population": "3126", 
    "population_proper": "3126"
  }, 
  {
    "City": "Ruen", 
    "lat": "42.8000", 
    "lng": "27.2833", 
    "country": "Bulgaria", 
    "iso2": "BG", 
    "admin_name": "Burgas", 
    "capital": "", 
    "population": "3116", 
    "population_proper": "3116"
  }, 
  {
    "City": "Kula", 
    "lat": "43.8833", 
    "lng": "22.5167", 
    "country": "Bulgaria", 
    "iso2": "BG", 
    "admin_name": "Vidin", 
    "capital": "minor", 
    "population": "3110", 
    "population_proper": "3110"
  }, 
  {
    "City": "Rogosh", 
    "lat": "42.1833", 
    "lng": "24.8667", 
    "country": "Bulgaria", 
    "iso2": "BG", 
    "admin_name": "Plovdiv", 
    "capital": "", 
    "population": "3109", 
    "population_proper": "3109"
  }, 
  {
    "City": "Batak", 
    "lat": "41.9440", 
    "lng": "24.2178", 
    "country": "Bulgaria", 
    "iso2": "BG", 
    "admin_name": "Pazardzhik", 
    "capital": "minor", 
    "population": "3099", 
    "population_proper": "3099"
  }, 
  {
    "City": "Ribnovo", 
    "lat": "41.7167", 
    "lng": "23.7667", 
    "country": "Bulgaria", 
    "iso2": "BG", 
    "admin_name": "Blagoevgrad", 
    "capital": "", 
    "population": "3085", 
    "population_proper": "3085"
  }, 
  {
    "City": "Yagoda", 
    "lat": "42.5500", 
    "lng": "25.6000", 
    "country": "Bulgaria", 
    "iso2": "BG", 
    "admin_name": "Stara Zagora", 
    "capital": "", 
    "population": "3079", 
    "population_proper": "3079"
  }, 
  {
    "City": "Topoli", 
    "lat": "43.2183", 
    "lng": "27.8214", 
    "country": "Bulgaria", 
    "iso2": "BG", 
    "admin_name": "Varna", 
    "capital": "", 
    "population": "3031", 
    "population_proper": "3031"
  }, 
  {
    "City": "Trudovets", 
    "lat": "42.9167", 
    "lng": "23.8333", 
    "country": "Bulgaria", 
    "iso2": "BG", 
    "admin_name": "Sofia", 
    "capital": "", 
    "population": "3026", 
    "population_proper": "3026"
  }, 
  {
    "City": "Ostrovo", 
    "lat": "43.6839", 
    "lng": "26.6072", 
    "country": "Bulgaria", 
    "iso2": "BG", 
    "admin_name": "Razgrad", 
    "capital": "", 
    "population": "2984", 
    "population_proper": "2984"
  }, 
  {
    "City": "Kalofer", 
    "lat": "42.6112", 
    "lng": "24.9748", 
    "country": "Bulgaria", 
    "iso2": "BG", 
    "admin_name": "Plovdiv", 
    "capital": "", 
    "population": "2984", 
    "population_proper": "2984"
  }, 
  {
    "City": "Kamenar", 
    "lat": "43.2493", 
    "lng": "27.8999", 
    "country": "Bulgaria", 
    "iso2": "BG", 
    "admin_name": "Varna", 
    "capital": "", 
    "population": "2968", 
    "population_proper": "2968"
  }, 
  {
    "City": "Krumovo", 
    "lat": "42.0833", 
    "lng": "24.8167", 
    "country": "Bulgaria", 
    "iso2": "BG", 
    "admin_name": "Plovdiv", 
    "capital": "", 
    "population": "2963", 
    "population_proper": "2963"
  }, 
  {
    "City": "Voluyak", 
    "lat": "42.7667", 
    "lng": "23.2500", 
    "country": "Bulgaria", 
    "iso2": "BG", 
    "admin_name": "Sofia-Grad", 
    "capital": "", 
    "population": "2960", 
    "population_proper": "2960"
  }, 
  {
    "City": "Pancharevo", 
    "lat": "42.5830", 
    "lng": "23.4000", 
    "country": "Bulgaria", 
    "iso2": "BG", 
    "admin_name": "Sofia-Grad", 
    "capital": "", 
    "population": "2930", 
    "population_proper": "2930"
  }, 
  {
    "City": "Pavel Banya", 
    "lat": "42.5972", 
    "lng": "25.2075", 
    "country": "Bulgaria", 
    "iso2": "BG", 
    "admin_name": "Stara Zagora", 
    "capital": "", 
    "population": "2922", 
    "population_proper": "2922"
  }, 
  {
    "City": "Banya", 
    "lat": "41.8794", 
    "lng": "23.5269", 
    "country": "Bulgaria", 
    "iso2": "BG", 
    "admin_name": "Blagoevgrad", 
    "capital": "", 
    "population": "2915", 
    "population_proper": "2915"
  }, 
  {
    "City": "Kableshkovo", 
    "lat": "42.6601", 
    "lng": "27.5680", 
    "country": "Bulgaria", 
    "iso2": "BG", 
    "admin_name": "Burgas", 
    "capital": "", 
    "population": "2911", 
    "population_proper": "2911"
  }, 
  {
    "City": "Dorkovo", 
    "lat": "42.0469", 
    "lng": "24.1319", 
    "country": "Bulgaria", 
    "iso2": "BG", 
    "admin_name": "Pazardzhik", 
    "capital": "", 
    "population": "2901", 
    "population_proper": "2901"
  }, 
  {
    "City": "Koprinka", 
    "lat": "42.6333", 
    "lng": "25.3333", 
    "country": "Bulgaria", 
    "iso2": "BG", 
    "admin_name": "Stara Zagora", 
    "capital": "", 
    "population": "2901", 
    "population_proper": "2901"
  }, 
  {
    "City": "Draganovo", 
    "lat": "43.2167", 
    "lng": "25.7500", 
    "country": "Bulgaria", 
    "iso2": "BG", 
    "admin_name": "Veliko Tarnovo", 
    "capital": "", 
    "population": "2895", 
    "population_proper": "2895"
  }, 
  {
    "City": "Manole", 
    "lat": "42.1833", 
    "lng": "24.9333", 
    "country": "Bulgaria", 
    "iso2": "BG", 
    "admin_name": "Plovdiv", 
    "capital": "", 
    "population": "2887", 
    "population_proper": "2887"
  }, 
  {
    "City": "Dolna Oryahovitsa", 
    "lat": "43.1565", 
    "lng": "25.7391", 
    "country": "Bulgaria", 
    "iso2": "BG", 
    "admin_name": "Veliko Tarnovo", 
    "capital": "", 
    "population": "2884", 
    "population_proper": "2884"
  }, 
  {
    "City": "Ustina", 
    "lat": "42.0333", 
    "lng": "24.5167", 
    "country": "Bulgaria", 
    "iso2": "BG", 
    "admin_name": "Plovdiv", 
    "capital": "", 
    "population": "2873", 
    "population_proper": "2873"
  }, 
  {
    "City": "Opaka", 
    "lat": "43.4474", 
    "lng": "26.1736", 
    "country": "Bulgaria", 
    "iso2": "BG", 
    "admin_name": "Targovishte", 
    "capital": "", 
    "population": "2842", 
    "population_proper": "2842"
  }, 
  {
    "City": "Hadzhidimovo", 
    "lat": "41.5155", 
    "lng": "23.8526", 
    "country": "Bulgaria", 
    "iso2": "BG", 
    "admin_name": "Blagoevgrad", 
    "capital": "", 
    "population": "2839", 
    "population_proper": "2839"
  }, 
  {
    "City": "Staro Oryahovo", 
    "lat": "42.9896", 
    "lng": "27.7998", 
    "country": "Bulgaria", 
    "iso2": "BG", 
    "admin_name": "Varna", 
    "capital": "", 
    "population": "2826", 
    "population_proper": "2826"
  }, 
  {
    "City": "Borino", 
    "lat": "41.6833", 
    "lng": "24.2833", 
    "country": "Bulgaria", 
    "iso2": "BG", 
    "admin_name": "Smolyan", 
    "capital": "minor", 
    "population": "2822", 
    "population_proper": "2822"
  }, 
  {
    "City": "Archar", 
    "lat": "43.8108", 
    "lng": "22.9181", 
    "country": "Bulgaria", 
    "iso2": "BG", 
    "admin_name": "Vidin", 
    "capital": "", 
    "population": "2822", 
    "population_proper": "2822"
  }, 
  {
    "City": "Iskra", 
    "lat": "44.0000", 
    "lng": "26.9833", 
    "country": "Bulgaria", 
    "iso2": "BG", 
    "admin_name": "Silistra", 
    "capital": "", 
    "population": "2821", 
    "population_proper": "2821"
  }, 
  {
    "City": "Dobrinishte", 
    "lat": "41.8210", 
    "lng": "23.5634", 
    "country": "Bulgaria", 
    "iso2": "BG", 
    "admin_name": "Blagoevgrad", 
    "capital": "", 
    "population": "2818", 
    "population_proper": "2818"
  }, 
  {
    "City": "Yablanitsa", 
    "lat": "43.0250", 
    "lng": "24.1000", 
    "country": "Bulgaria", 
    "iso2": "BG", 
    "admin_name": "Lovech", 
    "capital": "", 
    "population": "2810", 
    "population_proper": "2810"
  }, 
  {
    "City": "Loznitsa", 
    "lat": "43.3715", 
    "lng": "26.5987", 
    "country": "Bulgaria", 
    "iso2": "BG", 
    "admin_name": "Razgrad", 
    "capital": "", 
    "population": "2807", 
    "population_proper": "2807"
  }, 
  {
    "City": "Sotirya", 
    "lat": "42.6833", 
    "lng": "26.4000", 
    "country": "Bulgaria", 
    "iso2": "BG", 
    "admin_name": "Sliven", 
    "capital": "", 
    "population": "2804", 
    "population_proper": "2804"
  }, 
  {
    "City": "Tsonevo", 
    "lat": "43.0333", 
    "lng": "27.4333", 
    "country": "Bulgaria", 
    "iso2": "BG", 
    "admin_name": "Varna", 
    "capital": "", 
    "population": "2797", 
    "population_proper": "2797"
  }, 
  {
    "City": "Bezmer", 
    "lat": "43.7667", 
    "lng": "27.4167", 
    "country": "Bulgaria", 
    "iso2": "BG", 
    "admin_name": "Dobrich", 
    "capital": "", 
    "population": "2789", 
    "population_proper": "2789"
  }, 
  {
    "City": "Novo Selo", 
    "lat": "42.1050", 
    "lng": "24.4830", 
    "country": "Bulgaria", 
    "iso2": "BG", 
    "admin_name": "Plovdiv", 
    "capital": "", 
    "population": "2780", 
    "population_proper": "2780"
  }, 
  {
    "City": "Valkosel", 
    "lat": "41.5333", 
    "lng": "23.9833", 
    "country": "Bulgaria", 
    "iso2": "BG", 
    "admin_name": "Blagoevgrad", 
    "capital": "", 
    "population": "2780", 
    "population_proper": "2780"
  }, 
  {
    "City": "Zlataritsa", 
    "lat": "43.0442", 
    "lng": "25.8897", 
    "country": "Bulgaria", 
    "iso2": "BG", 
    "admin_name": "Veliko Tarnovo", 
    "capital": "", 
    "population": "2753", 
    "population_proper": "2753"
  }, 
  {
    "City": "Buhovo", 
    "lat": "42.7638", 
    "lng": "23.5658", 
    "country": "Bulgaria", 
    "iso2": "BG", 
    "admin_name": "Sofia-Grad", 
    "capital": "", 
    "population": "2752", 
    "population_proper": "2752"
  }, 
  {
    "City": "Bolyartsi", 
    "lat": "42.0667", 
    "lng": "24.9667", 
    "country": "Bulgaria", 
    "iso2": "BG", 
    "admin_name": "Plovdiv", 
    "capital": "", 
    "population": "2751", 
    "population_proper": "2751"
  }, 
  {
    "City": "Kalekovets", 
    "lat": "42.2333", 
    "lng": "24.8167", 
    "country": "Bulgaria", 
    "iso2": "BG", 
    "admin_name": "Plovdiv", 
    "capital": "", 
    "population": "2741", 
    "population_proper": "2741"
  }, 
  {
    "City": "Ugarchin", 
    "lat": "43.1000", 
    "lng": "24.4167", 
    "country": "Bulgaria", 
    "iso2": "BG", 
    "admin_name": "Lovech", 
    "capital": "", 
    "population": "2728", 
    "population_proper": "2728"
  }, 
  {
    "City": "Samuil", 
    "lat": "43.5167", 
    "lng": "26.7500", 
    "country": "Bulgaria", 
    "iso2": "BG", 
    "admin_name": "Razgrad", 
    "capital": "", 
    "population": "2723", 
    "population_proper": "2723"
  }, 
  {
    "City": "Byala Cherkva", 
    "lat": "43.2051", 
    "lng": "25.3106", 
    "country": "Bulgaria", 
    "iso2": "BG", 
    "admin_name": "Veliko Tarnovo", 
    "capital": "", 
    "population": "2715", 
    "population_proper": "2715"
  }, 
  {
    "City": "Kliment", 
    "lat": "43.6167", 
    "lng": "27.0000", 
    "country": "Bulgaria", 
    "iso2": "BG", 
    "admin_name": "Shumen", 
    "capital": "", 
    "population": "2692", 
    "population_proper": "2692"
  }, 
  {
    "City": "Nova Mahala", 
    "lat": "41.9333", 
    "lng": "24.2833", 
    "country": "Bulgaria", 
    "iso2": "BG", 
    "admin_name": "Pazardzhik", 
    "capital": "", 
    "population": "2676", 
    "population_proper": "2676"
  }, 
  {
    "City": "Tran", 
    "lat": "42.8365", 
    "lng": "22.6510", 
    "country": "Bulgaria", 
    "iso2": "BG", 
    "admin_name": "Pernik", 
    "capital": "minor", 
    "population": "2646", 
    "population_proper": "2646"
  }, 
  {
    "City": "Kurtovo Konare", 
    "lat": "42.0928", 
    "lng": "24.5019", 
    "country": "Bulgaria", 
    "iso2": "BG", 
    "admin_name": "Plovdiv", 
    "capital": "", 
    "population": "2638", 
    "population_proper": "2638"
  }, 
  {
    "City": "Sadovo", 
    "lat": "42.1304", 
    "lng": "24.9385", 
    "country": "Bulgaria", 
    "iso2": "BG", 
    "admin_name": "Plovdiv", 
    "capital": "", 
    "population": "2636", 
    "population_proper": "2636"
  }, 
  {
    "City": "Markovo", 
    "lat": "42.0667", 
    "lng": "24.7000", 
    "country": "Bulgaria", 
    "iso2": "BG", 
    "admin_name": "Plovdiv", 
    "capital": "", 
    "population": "2621", 
    "population_proper": "2621"
  }, 
  {
    "City": "Galata", 
    "lat": "43.0167", 
    "lng": "24.2833", 
    "country": "Bulgaria", 
    "iso2": "BG", 
    "admin_name": "Lovech", 
    "capital": "", 
    "population": "2587", 
    "population_proper": "2587"
  }, 
  {
    "City": "Debren", 
    "lat": "41.5843", 
    "lng": "23.8228", 
    "country": "Bulgaria", 
    "iso2": "BG", 
    "admin_name": "Blagoevgrad", 
    "capital": "", 
    "population": "2586", 
    "population_proper": "2586"
  }, 
  {
    "City": "German", 
    "lat": "42.6167", 
    "lng": "23.4167", 
    "country": "Bulgaria", 
    "iso2": "BG", 
    "admin_name": "Sofia-Grad", 
    "capital": "", 
    "population": "2572", 
    "population_proper": "2572"
  }, 
  {
    "City": "Byal Izvor", 
    "lat": "41.5500", 
    "lng": "25.0833", 
    "country": "Bulgaria", 
    "iso2": "BG", 
    "admin_name": "Kardzhali", 
    "capital": "", 
    "population": "2563", 
    "population_proper": "2563"
  }, 
  {
    "City": "Podayva", 
    "lat": "43.6719", 
    "lng": "26.9161", 
    "country": "Bulgaria", 
    "iso2": "BG", 
    "admin_name": "Razgrad", 
    "capital": "", 
    "population": "2559", 
    "population_proper": "2559"
  }, 
  {
    "City": "Grozdyovo", 
    "lat": "43.0167", 
    "lng": "27.5333", 
    "country": "Bulgaria", 
    "iso2": "BG", 
    "admin_name": "Varna", 
    "capital": "", 
    "population": "2533", 
    "population_proper": "2533"
  }, 
  {
    "City": "Novi Han", 
    "lat": "42.6000", 
    "lng": "23.6000", 
    "country": "Bulgaria", 
    "iso2": "BG", 
    "admin_name": "Sofia", 
    "capital": "", 
    "population": "2532", 
    "population_proper": "2532"
  }, 
  {
    "City": "Apriltsi", 
    "lat": "42.8399", 
    "lng": "24.9200", 
    "country": "Bulgaria", 
    "iso2": "BG", 
    "admin_name": "Lovech", 
    "capital": "", 
    "population": "2527", 
    "population_proper": "2527"
  }, 
  {
    "City": "Ognyanovo", 
    "lat": "42.1500", 
    "lng": "24.4167", 
    "country": "Bulgaria", 
    "iso2": "BG", 
    "admin_name": "Pazardzhik", 
    "capital": "", 
    "population": "2524", 
    "population_proper": "2524"
  }, 
  {
    "City": "Rila", 
    "lat": "42.1268", 
    "lng": "23.1307", 
    "country": "Bulgaria", 
    "iso2": "BG", 
    "admin_name": "Kyustendil", 
    "capital": "", 
    "population": "2511", 
    "population_proper": "2511"
  }, 
  {
    "City": "Parvomaytsi", 
    "lat": "43.1530", 
    "lng": "25.6521", 
    "country": "Bulgaria", 
    "iso2": "BG", 
    "admin_name": "Veliko Tarnovo", 
    "capital": "", 
    "population": "2494", 
    "population_proper": "2494"
  }, 
  {
    "City": "Valnari", 
    "lat": "43.6000", 
    "lng": "27.2167", 
    "country": "Bulgaria", 
    "iso2": "BG", 
    "admin_name": "Shumen", 
    "capital": "", 
    "population": "2481", 
    "population_proper": "2481"
  }, 
  {
    "City": "Skutare", 
    "lat": "42.1833", 
    "lng": "24.8333", 
    "country": "Bulgaria", 
    "iso2": "BG", 
    "admin_name": "Plovdiv", 
    "capital": "", 
    "population": "2462", 
    "population_proper": "2462"
  }, 
  {
    "City": "Kilifarevo", 
    "lat": "42.9943", 
    "lng": "25.6205", 
    "country": "Bulgaria", 
    "iso2": "BG", 
    "admin_name": "Veliko Tarnovo", 
    "capital": "", 
    "population": "2448", 
    "population_proper": "2448"
  }, 
  {
    "City": "Glavinitsa", 
    "lat": "42.1581", 
    "lng": "24.3103", 
    "country": "Bulgaria", 
    "iso2": "BG", 
    "admin_name": "Pazardzhik", 
    "capital": "", 
    "population": "2433", 
    "population_proper": "2433"
  }, 
  {
    "City": "Dospat", 
    "lat": "41.6458", 
    "lng": "24.1605", 
    "country": "Bulgaria", 
    "iso2": "BG", 
    "admin_name": "Smolyan", 
    "capital": "minor", 
    "population": "2431", 
    "population_proper": "2431"
  }, 
  {
    "City": "Gluhar", 
    "lat": "41.5953", 
    "lng": "25.3935", 
    "country": "Bulgaria", 
    "iso2": "BG", 
    "admin_name": "Kardzhali", 
    "capital": "", 
    "population": "2429", 
    "population_proper": "2429"
  }, 
  {
    "City": "Satovcha", 
    "lat": "41.6193", 
    "lng": "23.9769", 
    "country": "Bulgaria", 
    "iso2": "BG", 
    "admin_name": "Blagoevgrad", 
    "capital": "", 
    "population": "2429", 
    "population_proper": "2429"
  }, 
  {
    "City": "Chepintsi", 
    "lat": "42.7667", 
    "lng": "23.4333", 
    "country": "Bulgaria", 
    "iso2": "BG", 
    "admin_name": "Sofia-Grad", 
    "capital": "", 
    "population": "2427", 
    "population_proper": "2427"
  }, 
  {
    "City": "Sevar", 
    "lat": "43.8333", 
    "lng": "26.5833", 
    "country": "Bulgaria", 
    "iso2": "BG", 
    "admin_name": "Razgrad", 
    "capital": "", 
    "population": "2408", 
    "population_proper": "2408"
  }, 
  {
    "City": "Bregovo", 
    "lat": "44.1500", 
    "lng": "22.6500", 
    "country": "Bulgaria", 
    "iso2": "BG", 
    "admin_name": "Vidin", 
    "capital": "minor", 
    "population": "2400", 
    "population_proper": "2400"
  }, 
  {
    "City": "Branichevo", 
    "lat": "43.6800", 
    "lng": "27.0994", 
    "country": "Bulgaria", 
    "iso2": "BG", 
    "admin_name": "Shumen", 
    "capital": "", 
    "population": "2384", 
    "population_proper": "2384"
  }, 
  {
    "City": "Shtraklevo", 
    "lat": "43.7167", 
    "lng": "26.0500", 
    "country": "Bulgaria", 
    "iso2": "BG", 
    "admin_name": "Ruse", 
    "capital": "", 
    "population": "2374", 
    "population_proper": "2374"
  }, 
  {
    "City": "Kornitsa", 
    "lat": "41.6406", 
    "lng": "23.6764", 
    "country": "Bulgaria", 
    "iso2": "BG", 
    "admin_name": "Blagoevgrad", 
    "capital": "", 
    "population": "2358", 
    "population_proper": "2358"
  }, 
  {
    "City": "Dermantsi", 
    "lat": "43.1500", 
    "lng": "24.2833", 
    "country": "Bulgaria", 
    "iso2": "BG", 
    "admin_name": "Lovech", 
    "capital": "", 
    "population": "2357", 
    "population_proper": "2357"
  }, 
  {
    "City": "Rani List", 
    "lat": "41.6833", 
    "lng": "25.4000", 
    "country": "Bulgaria", 
    "iso2": "BG", 
    "admin_name": "Kardzhali", 
    "capital": "", 
    "population": "2353", 
    "population_proper": "2353"
  }, 
  {
    "City": "Sadovets", 
    "lat": "43.3000", 
    "lng": "24.3500", 
    "country": "Bulgaria", 
    "iso2": "BG", 
    "admin_name": "Pleven", 
    "capital": "", 
    "population": "2349", 
    "population_proper": "2349"
  }, 
  {
    "City": "Obrochishte", 
    "lat": "43.4031", 
    "lng": "28.0455", 
    "country": "Bulgaria", 
    "iso2": "BG", 
    "admin_name": "Dobrich", 
    "capital": "", 
    "population": "2348", 
    "population_proper": "2348"
  }, 
  {
    "City": "Dabnitsa", 
    "lat": "41.5667", 
    "lng": "23.8333", 
    "country": "Bulgaria", 
    "iso2": "BG", 
    "admin_name": "Blagoevgrad", 
    "capital": "", 
    "population": "2331", 
    "population_proper": "2331"
  }, 
  {
    "City": "Svetovrachane", 
    "lat": "42.7833", 
    "lng": "23.4000", 
    "country": "Bulgaria", 
    "iso2": "BG", 
    "admin_name": "Sofia-Grad", 
    "capital": "", 
    "population": "2327", 
    "population_proper": "2327"
  }, 
  {
    "City": "Kitanchevo", 
    "lat": "43.7319", 
    "lng": "26.8922", 
    "country": "Bulgaria", 
    "iso2": "BG", 
    "admin_name": "Razgrad", 
    "capital": "", 
    "population": "2326", 
    "population_proper": "2326"
  }, 
  {
    "City": "Startsevo", 
    "lat": "41.4167", 
    "lng": "25.0667", 
    "country": "Bulgaria", 
    "iso2": "BG", 
    "admin_name": "Smolyan", 
    "capital": "", 
    "population": "2319", 
    "population_proper": "2319"
  }, 
  {
    "City": "Slashten", 
    "lat": "41.5000", 
    "lng": "24.0167", 
    "country": "Bulgaria", 
    "iso2": "BG", 
    "admin_name": "Blagoevgrad", 
    "capital": "", 
    "population": "2318", 
    "population_proper": "2318"
  }, 
  {
    "City": "Buzovgrad", 
    "lat": "42.5667", 
    "lng": "25.3667", 
    "country": "Bulgaria", 
    "iso2": "BG", 
    "admin_name": "Stara Zagora", 
    "capital": "", 
    "population": "2307", 
    "population_proper": "2307"
  }, 
  {
    "City": "Enina", 
    "lat": "42.6669", 
    "lng": "25.4083", 
    "country": "Bulgaria", 
    "iso2": "BG", 
    "admin_name": "Stara Zagora", 
    "capital": "", 
    "population": "2294", 
    "population_proper": "2294"
  }, 
  {
    "City": "Fotinovo", 
    "lat": "41.3731", 
    "lng": "25.3417", 
    "country": "Bulgaria", 
    "iso2": "BG", 
    "admin_name": "Kardzhali", 
    "capital": "", 
    "population": "2292", 
    "population_proper": "2292"
  }, 
  {
    "City": "Borovo", 
    "lat": "43.4907", 
    "lng": "25.8115", 
    "country": "Bulgaria", 
    "iso2": "BG", 
    "admin_name": "Ruse", 
    "capital": "minor", 
    "population": "2291", 
    "population_proper": "2291"
  }, 
  {
    "City": "Katunitsa", 
    "lat": "42.1000", 
    "lng": "24.8667", 
    "country": "Bulgaria", 
    "iso2": "BG", 
    "admin_name": "Plovdiv", 
    "capital": "", 
    "population": "2288", 
    "population_proper": "2288"
  }, 
  {
    "City": "Bratanitsa", 
    "lat": "42.1667", 
    "lng": "24.2167", 
    "country": "Bulgaria", 
    "iso2": "BG", 
    "admin_name": "Pazardzhik", 
    "capital": "", 
    "population": "2250", 
    "population_proper": "2250"
  }, 
  {
    "City": "Shiroko Pole", 
    "lat": "41.6167", 
    "lng": "25.4583", 
    "country": "Bulgaria", 
    "iso2": "BG", 
    "admin_name": "Kardzhali", 
    "capital": "", 
    "population": "2228", 
    "population_proper": "2228"
  }, 
  {
    "City": "Malko Tarnovo", 
    "lat": "41.9806", 
    "lng": "27.5236", 
    "country": "Bulgaria", 
    "iso2": "BG", 
    "admin_name": "Burgas", 
    "capital": "", 
    "population": "2224", 
    "population_proper": "2224"
  }, 
  {
    "City": "Pristoe", 
    "lat": "43.6500", 
    "lng": "27.0833", 
    "country": "Bulgaria", 
    "iso2": "BG", 
    "admin_name": "Shumen", 
    "capital": "", 
    "population": "2221", 
    "population_proper": "2221"
  }, 
  {
    "City": "Tsaratsovo", 
    "lat": "42.2000", 
    "lng": "24.6833", 
    "country": "Bulgaria", 
    "iso2": "BG", 
    "admin_name": "Plovdiv", 
    "capital": "", 
    "population": "2214", 
    "population_proper": "2214"
  }, 
  {
    "City": "Sborishte", 
    "lat": "42.6833", 
    "lng": "25.9667", 
    "country": "Bulgaria", 
    "iso2": "BG", 
    "admin_name": "Sliven", 
    "capital": "", 
    "population": "2209", 
    "population_proper": "2209"
  }, 
  {
    "City": "Polikrayshte", 
    "lat": "43.1807", 
    "lng": "25.6199", 
    "country": "Bulgaria", 
    "iso2": "BG", 
    "admin_name": "Veliko Tarnovo", 
    "capital": "", 
    "population": "2182", 
    "population_proper": "2182"
  }, 
  {
    "City": "Koprivshtitsa", 
    "lat": "42.6401", 
    "lng": "24.3583", 
    "country": "Bulgaria", 
    "iso2": "BG", 
    "admin_name": "Sofia", 
    "capital": "", 
    "population": "2182", 
    "population_proper": "2182"
  }, 
  {
    "City": "Batanovtsi", 
    "lat": "42.6000", 
    "lng": "22.9500", 
    "country": "Bulgaria", 
    "iso2": "BG", 
    "admin_name": "Pernik", 
    "capital": "", 
    "population": "2178", 
    "population_proper": "2178"
  }, 
  {
    "City": "Chernomorets", 
    "lat": "42.4444", 
    "lng": "27.6387", 
    "country": "Bulgaria", 
    "iso2": "BG", 
    "admin_name": "Burgas", 
    "capital": "", 
    "population": "2177", 
    "population_proper": "2177"
  }, 
  {
    "City": "Aheloy", 
    "lat": "42.6489", 
    "lng": "27.6481", 
    "country": "Bulgaria", 
    "iso2": "BG", 
    "admin_name": "Burgas", 
    "capital": "", 
    "population": "2171", 
    "population_proper": "2171"
  }, 
  {
    "City": "Belovets", 
    "lat": "43.8167", 
    "lng": "26.3833", 
    "country": "Bulgaria", 
    "iso2": "BG", 
    "admin_name": "Razgrad", 
    "capital": "", 
    "population": "2168", 
    "population_proper": "2168"
  }, 
  {
    "City": "Borovan", 
    "lat": "43.4277", 
    "lng": "23.7542", 
    "country": "Bulgaria", 
    "iso2": "BG", 
    "admin_name": "Vratsa", 
    "capital": "", 
    "population": "2167", 
    "population_proper": "2167"
  }, 
  {
    "City": "Musomishta", 
    "lat": "41.5531", 
    "lng": "23.7476", 
    "country": "Bulgaria", 
    "iso2": "BG", 
    "admin_name": "Blagoevgrad", 
    "capital": "", 
    "population": "2163", 
    "population_proper": "2163"
  }, 
  {
    "City": "Isperihovo", 
    "lat": "42.0833", 
    "lng": "24.4333", 
    "country": "Bulgaria", 
    "iso2": "BG", 
    "admin_name": "Pazardzhik", 
    "capital": "", 
    "population": "2156", 
    "population_proper": "2156"
  }, 
  {
    "City": "Krushare", 
    "lat": "42.5500", 
    "lng": "26.3667", 
    "country": "Bulgaria", 
    "iso2": "BG", 
    "admin_name": "Sliven", 
    "capital": "", 
    "population": "2155", 
    "population_proper": "2155"
  }, 
  {
    "City": "Garmen", 
    "lat": "41.5982", 
    "lng": "23.8032", 
    "country": "Bulgaria", 
    "iso2": "BG", 
    "admin_name": "Blagoevgrad", 
    "capital": "", 
    "population": "2153", 
    "population_proper": "2153"
  }, 
  {
    "City": "Dragichevo", 
    "lat": "42.6167", 
    "lng": "23.1833", 
    "country": "Bulgaria", 
    "iso2": "BG", 
    "admin_name": "Sofia-Grad", 
    "capital": "", 
    "population": "2149", 
    "population_proper": "2149"
  }, 
  {
    "City": "Semchinovo", 
    "lat": "42.1789", 
    "lng": "24.0975", 
    "country": "Bulgaria", 
    "iso2": "BG", 
    "admin_name": "Pazardzhik", 
    "capital": "", 
    "population": "2130", 
    "population_proper": "2130"
  }, 
  {
    "City": "Pordim", 
    "lat": "43.3781", 
    "lng": "24.8476", 
    "country": "Bulgaria", 
    "iso2": "BG", 
    "admin_name": "Pleven", 
    "capital": "", 
    "population": "2107", 
    "population_proper": "2107"
  }, 
  {
    "City": "Voyvodinovo", 
    "lat": "42.1999", 
    "lng": "24.7942", 
    "country": "Bulgaria", 
    "iso2": "BG", 
    "admin_name": "Plovdiv", 
    "capital": "", 
    "population": "2090", 
    "population_proper": "2090"
  }, 
  {
    "City": "Obzor", 
    "lat": "42.8230", 
    "lng": "27.8787", 
    "country": "Bulgaria", 
    "iso2": "BG", 
    "admin_name": "Burgas", 
    "capital": "", 
    "population": "2076", 
    "population_proper": "2076"
  }, 
  {
    "City": "Lazhnitsa", 
    "lat": "41.6167", 
    "lng": "23.6833", 
    "country": "Bulgaria", 
    "iso2": "BG", 
    "admin_name": "Blagoevgrad", 
    "capital": "", 
    "population": "2066", 
    "population_proper": "2066"
  }, 
  {
    "City": "Ayrovo", 
    "lat": "41.6167", 
    "lng": "25.3667", 
    "country": "Bulgaria", 
    "iso2": "BG", 
    "admin_name": "Kardzhali", 
    "capital": "", 
    "population": "2059", 
    "population_proper": "2059"
  }, 
  {
    "City": "Tetovo", 
    "lat": "43.8167", 
    "lng": "26.2833", 
    "country": "Bulgaria", 
    "iso2": "BG", 
    "admin_name": "Razgrad", 
    "capital": "", 
    "population": "2059", 
    "population_proper": "2059"
  }, 
  {
    "City": "Laki", 
    "lat": "41.8326", 
    "lng": "24.8315", 
    "country": "Bulgaria", 
    "iso2": "BG", 
    "admin_name": "Plovdiv", 
    "capital": "", 
    "population": "2047", 
    "population_proper": "2047"
  }, 
  {
    "City": "Harlets", 
    "lat": "43.7000", 
    "lng": "23.8333", 
    "country": "Bulgaria", 
    "iso2": "BG", 
    "admin_name": "Vratsa", 
    "capital": "", 
    "population": "2044", 
    "population_proper": "2044"
  }, 
  {
    "City": "Chernogorovo", 
    "lat": "42.2772", 
    "lng": "24.3981", 
    "country": "Bulgaria", 
    "iso2": "BG", 
    "admin_name": "Pazardzhik", 
    "capital": "", 
    "population": "2043", 
    "population_proper": "2043"
  }, 
  {
    "City": "Medovets", 
    "lat": "43.0000", 
    "lng": "27.1333", 
    "country": "Bulgaria", 
    "iso2": "BG", 
    "admin_name": "Varna", 
    "capital": "", 
    "population": "2028", 
    "population_proper": "2028"
  }, 
  {
    "City": "Yahinovo", 
    "lat": "42.2833", 
    "lng": "23.1500", 
    "country": "Bulgaria", 
    "iso2": "BG", 
    "admin_name": "Kyustendil", 
    "capital": "", 
    "population": "2020", 
    "population_proper": "2020"
  }, 
  {
    "City": "Gabarevo", 
    "lat": "42.6167", 
    "lng": "25.1667", 
    "country": "Bulgaria", 
    "iso2": "BG", 
    "admin_name": "Stara Zagora", 
    "capital": "", 
    "population": "2012", 
    "population_proper": "2012"
  }, 
  {
    "City": "Sheynovo", 
    "lat": "42.6833", 
    "lng": "25.3167", 
    "country": "Bulgaria", 
    "iso2": "BG", 
    "admin_name": "Stara Zagora", 
    "capital": "", 
    "population": "2008", 
    "population_proper": "2008"
  }, 
  {
    "City": "Chalakovi", 
    "lat": "42.1500", 
    "lng": "25.0167", 
    "country": "Bulgaria", 
    "iso2": "BG", 
    "admin_name": "Plovdiv", 
    "capital": "", 
    "population": "1994", 
    "population_proper": "1994"
  }, 
  {
    "City": "Vladimirovtsi", 
    "lat": "43.6333", 
    "lng": "26.8667", 
    "country": "Bulgaria", 
    "iso2": "BG", 
    "admin_name": "Razgrad", 
    "capital": "", 
    "population": "1984", 
    "population_proper": "1984"
  }, 
  {
    "City": "Gorni Dabnik", 
    "lat": "43.3833", 
    "lng": "24.3500", 
    "country": "Bulgaria", 
    "iso2": "BG", 
    "admin_name": "Pleven", 
    "capital": "", 
    "population": "1983", 
    "population_proper": "1983"
  }, 
  {
    "City": "Tranak", 
    "lat": "42.9500", 
    "lng": "27.2167", 
    "country": "Bulgaria", 
    "iso2": "BG", 
    "admin_name": "Burgas", 
    "capital": "", 
    "population": "1981", 
    "population_proper": "1981"
  }, 
  {
    "City": "Pletena", 
    "lat": "41.6383", 
    "lng": "23.9578", 
    "country": "Bulgaria", 
    "iso2": "BG", 
    "admin_name": "Blagoevgrad", 
    "capital": "", 
    "population": "1976", 
    "population_proper": "1976"
  }, 
  {
    "City": "Balgarovo", 
    "lat": "42.6201", 
    "lng": "27.3059", 
    "country": "Bulgaria", 
    "iso2": "BG", 
    "admin_name": "Burgas", 
    "capital": "", 
    "population": "1952", 
    "population_proper": "1952"
  }, 
  {
    "City": "Glavinitsa", 
    "lat": "43.9116", 
    "lng": "26.8345", 
    "country": "Bulgaria", 
    "iso2": "BG", 
    "admin_name": "Silistra", 
    "capital": "", 
    "population": "1952", 
    "population_proper": "1952"
  }, 
  {
    "City": "Mokrishte", 
    "lat": "42.1833", 
    "lng": "24.2833", 
    "country": "Bulgaria", 
    "iso2": "BG", 
    "admin_name": "Pazardzhik", 
    "capital": "", 
    "population": "1949", 
    "population_proper": "1949"
  }, 
  {
    "City": "Gorno Prahovo", 
    "lat": "41.6456", 
    "lng": "25.1595", 
    "country": "Bulgaria", 
    "iso2": "BG", 
    "admin_name": "Kardzhali", 
    "capital": "", 
    "population": "1946", 
    "population_proper": "1946"
  }, 
  {
    "City": "Aleksandrovo", 
    "lat": "43.2500", 
    "lng": "24.9500", 
    "country": "Bulgaria", 
    "iso2": "BG", 
    "admin_name": "Lovech", 
    "capital": "", 
    "population": "1945", 
    "population_proper": "1945"
  }, 
  {
    "City": "Petarch", 
    "lat": "42.8333", 
    "lng": "23.1333", 
    "country": "Bulgaria", 
    "iso2": "BG", 
    "admin_name": "Sofia", 
    "capital": "", 
    "population": "1940", 
    "population_proper": "1940"
  }, 
  {
    "City": "Bisertsi", 
    "lat": "43.8842", 
    "lng": "26.5036", 
    "country": "Bulgaria", 
    "iso2": "BG", 
    "admin_name": "Razgrad", 
    "capital": "", 
    "population": "1931", 
    "population_proper": "1931"
  }, 
  {
    "City": "Sinitovo", 
    "lat": "42.1500", 
    "lng": "24.3667", 
    "country": "Bulgaria", 
    "iso2": "BG", 
    "admin_name": "Pazardzhik", 
    "capital": "", 
    "population": "1927", 
    "population_proper": "1927"
  }, 
  {
    "City": "Timarevo", 
    "lat": "43.4000", 
    "lng": "26.8833", 
    "country": "Bulgaria", 
    "iso2": "BG", 
    "admin_name": "Shumen", 
    "capital": "", 
    "population": "1920", 
    "population_proper": "1920"
  }, 
  {
    "City": "Mramor", 
    "lat": "42.7861", 
    "lng": "23.2736", 
    "country": "Bulgaria", 
    "iso2": "BG", 
    "admin_name": "Sofia-Grad", 
    "capital": "", 
    "population": "1915", 
    "population_proper": "1915"
  }, 
  {
    "City": "Opalchensko", 
    "lat": "41.6000", 
    "lng": "25.3667", 
    "country": "Bulgaria", 
    "iso2": "BG", 
    "admin_name": "Kardzhali", 
    "capital": "", 
    "population": "1887", 
    "population_proper": "1887"
  }, 
  {
    "City": "Suhindol", 
    "lat": "43.1917", 
    "lng": "25.1808", 
    "country": "Bulgaria", 
    "iso2": "BG", 
    "admin_name": "Veliko Tarnovo", 
    "capital": "", 
    "population": "1886", 
    "population_proper": "1886"
  }, 
  {
    "City": "Zvanichevo", 
    "lat": "42.1833", 
    "lng": "24.2500", 
    "country": "Bulgaria", 
    "iso2": "BG", 
    "admin_name": "Pazardzhik", 
    "capital": "", 
    "population": "1885", 
    "population_proper": "1885"
  }, 
  {
    "City": "Oreshak", 
    "lat": "42.8833", 
    "lng": "24.7667", 
    "country": "Bulgaria", 
    "iso2": "BG", 
    "admin_name": "Lovech", 
    "capital": "", 
    "population": "1881", 
    "population_proper": "1881"
  }, 
  {
    "City": "Kocherinovo", 
    "lat": "42.0856", 
    "lng": "23.0581", 
    "country": "Bulgaria", 
    "iso2": "BG", 
    "admin_name": "Kyustendil", 
    "capital": "", 
    "population": "1879", 
    "population_proper": "1879"
  }, 
  {
    "City": "Veselina", 
    "lat": "43.4500", 
    "lng": "26.6833", 
    "country": "Bulgaria", 
    "iso2": "BG", 
    "admin_name": "Razgrad", 
    "capital": "", 
    "population": "1876", 
    "population_proper": "1876"
  }, 
  {
    "City": "Most", 
    "lat": "41.7350", 
    "lng": "25.5211", 
    "country": "Bulgaria", 
    "iso2": "BG", 
    "admin_name": "Kardzhali", 
    "capital": "", 
    "population": "1874", 
    "population_proper": "1874"
  }, 
  {
    "City": "Byala Reka", 
    "lat": "43.0000", 
    "lng": "26.7667", 
    "country": "Bulgaria", 
    "iso2": "BG", 
    "admin_name": "Shumen", 
    "capital": "", 
    "population": "1870", 
    "population_proper": "1870"
  }, 
  {
    "City": "Polkovnik Zhelyazovo", 
    "lat": "41.4657", 
    "lng": "25.6724", 
    "country": "Bulgaria", 
    "iso2": "BG", 
    "admin_name": "Kardzhali", 
    "capital": "", 
    "population": "1860", 
    "population_proper": "1860"
  }, 
  {
    "City": "Gradezhnitsa", 
    "lat": "43.0167", 
    "lng": "24.2333", 
    "country": "Bulgaria", 
    "iso2": "BG", 
    "admin_name": "Lovech", 
    "capital": "", 
    "population": "1858", 
    "population_proper": "1858"
  }, 
  {
    "City": "Okorsh", 
    "lat": "43.7500", 
    "lng": "27.0333", 
    "country": "Bulgaria", 
    "iso2": "BG", 
    "admin_name": "Silistra", 
    "capital": "", 
    "population": "1858", 
    "population_proper": "1858"
  }, 
  {
    "City": "Popintsi", 
    "lat": "42.4167", 
    "lng": "24.2833", 
    "country": "Bulgaria", 
    "iso2": "BG", 
    "admin_name": "Pazardzhik", 
    "capital": "", 
    "population": "1853", 
    "population_proper": "1853"
  }, 
  {
    "City": "Nova Cherna", 
    "lat": "44.0108", 
    "lng": "26.5000", 
    "country": "Bulgaria", 
    "iso2": "BG", 
    "admin_name": "Silistra", 
    "capital": "", 
    "population": "1853", 
    "population_proper": "1853"
  }, 
  {
    "City": "Brestnik", 
    "lat": "42.0500", 
    "lng": "24.7667", 
    "country": "Bulgaria", 
    "iso2": "BG", 
    "admin_name": "Plovdiv", 
    "capital": "", 
    "population": "1841", 
    "population_proper": "1841"
  }, 
  {
    "City": "Gigen", 
    "lat": "43.7000", 
    "lng": "24.4833", 
    "country": "Bulgaria", 
    "iso2": "BG", 
    "admin_name": "Pleven", 
    "capital": "", 
    "population": "1836", 
    "population_proper": "1836"
  }, 
  {
    "City": "Debelt", 
    "lat": "42.4021", 
    "lng": "27.2604", 
    "country": "Bulgaria", 
    "iso2": "BG", 
    "admin_name": "Burgas", 
    "capital": "", 
    "population": "1835", 
    "population_proper": "1835"
  }, 
  {
    "City": "Kraynitsi", 
    "lat": "42.3167", 
    "lng": "23.2000", 
    "country": "Bulgaria", 
    "iso2": "BG", 
    "admin_name": "Kyustendil", 
    "capital": "", 
    "population": "1834", 
    "population_proper": "1834"
  }, 
  {
    "City": "Smilyan", 
    "lat": "41.5000", 
    "lng": "24.7500", 
    "country": "Bulgaria", 
    "iso2": "BG", 
    "admin_name": "Smolyan", 
    "capital": "", 
    "population": "1834", 
    "population_proper": "1834"
  }, 
  {
    "City": "Slokoshtitsa", 
    "lat": "42.2667", 
    "lng": "22.7072", 
    "country": "Bulgaria", 
    "iso2": "BG", 
    "admin_name": "Kyustendil", 
    "capital": "", 
    "population": "1832", 
    "population_proper": "1832"
  }, 
  {
    "City": "Kokalyane", 
    "lat": "42.5833", 
    "lng": "23.4167", 
    "country": "Bulgaria", 
    "iso2": "BG", 
    "admin_name": "Sofia-Grad", 
    "capital": "", 
    "population": "1827", 
    "population_proper": "1827"
  }, 
  {
    "City": "Radanovo", 
    "lat": "43.3399", 
    "lng": "25.6366", 
    "country": "Bulgaria", 
    "iso2": "BG", 
    "admin_name": "Veliko Tarnovo", 
    "capital": "", 
    "population": "1825", 
    "population_proper": "1825"
  }, 
  {
    "City": "Hrishteni", 
    "lat": "42.4500", 
    "lng": "25.7000", 
    "country": "Bulgaria", 
    "iso2": "BG", 
    "admin_name": "Stara Zagora", 
    "capital": "", 
    "population": "1818", 
    "population_proper": "1818"
  }, 
  {
    "City": "Litakovo", 
    "lat": "42.9500", 
    "lng": "23.6833", 
    "country": "Bulgaria", 
    "iso2": "BG", 
    "admin_name": "Sofia", 
    "capital": "", 
    "population": "1818", 
    "population_proper": "1818"
  }, 
  {
    "City": "Chernolik", 
    "lat": "43.8667", 
    "lng": "27.0833", 
    "country": "Bulgaria", 
    "iso2": "BG", 
    "admin_name": "Silistra", 
    "capital": "", 
    "population": "1812", 
    "population_proper": "1812"
  }, 
  {
    "City": "Zheglartsi", 
    "lat": "43.6667", 
    "lng": "27.4000", 
    "country": "Bulgaria", 
    "iso2": "BG", 
    "admin_name": "Dobrich", 
    "capital": "", 
    "population": "1810", 
    "population_proper": "1810"
  }, 
  {
    "City": "Malorad", 
    "lat": "43.4889", 
    "lng": "23.6875", 
    "country": "Bulgaria", 
    "iso2": "BG", 
    "admin_name": "Vratsa", 
    "capital": "", 
    "population": "1808", 
    "population_proper": "1808"
  }, 
  {
    "City": "Resen", 
    "lat": "43.2000", 
    "lng": "25.5500", 
    "country": "Bulgaria", 
    "iso2": "BG", 
    "admin_name": "Veliko Tarnovo", 
    "capital": "", 
    "population": "1805", 
    "population_proper": "1805"
  }, 
  {
    "City": "Hristo-Danovo", 
    "lat": "42.7333", 
    "lng": "24.6000", 
    "country": "Bulgaria", 
    "iso2": "BG", 
    "admin_name": "Plovdiv", 
    "capital": "", 
    "population": "1800", 
    "population_proper": "1800"
  }, 
  {
    "City": "Barutin", 
    "lat": "41.6000", 
    "lng": "24.1833", 
    "country": "Bulgaria", 
    "iso2": "BG", 
    "admin_name": "Smolyan", 
    "capital": "", 
    "population": "1791", 
    "population_proper": "1791"
  }, 
  {
    "City": "Kostievo", 
    "lat": "42.1766", 
    "lng": "24.6237", 
    "country": "Bulgaria", 
    "iso2": "BG", 
    "admin_name": "Plovdiv", 
    "capital": "", 
    "population": "1788", 
    "population_proper": "1788"
  }, 
  {
    "City": "Korten", 
    "lat": "42.5500", 
    "lng": "26.0000", 
    "country": "Bulgaria", 
    "iso2": "BG", 
    "admin_name": "Sliven", 
    "capital": "", 
    "population": "1784", 
    "population_proper": "1784"
  }, 
  {
    "City": "Chiprovtsi", 
    "lat": "43.3846", 
    "lng": "22.8825", 
    "country": "Bulgaria", 
    "iso2": "BG", 
    "admin_name": "Montana", 
    "capital": "", 
    "population": "1783", 
    "population_proper": "1783"
  }, 
  {
    "City": "Karageorgievo", 
    "lat": "42.7357", 
    "lng": "27.1845", 
    "country": "Bulgaria", 
    "iso2": "BG", 
    "admin_name": "Burgas", 
    "capital": "", 
    "population": "1781", 
    "population_proper": "1781"
  }, 
  {
    "City": "Lehchevo", 
    "lat": "43.5333", 
    "lng": "23.5333", 
    "country": "Bulgaria", 
    "iso2": "BG", 
    "admin_name": "Montana", 
    "capital": "", 
    "population": "1778", 
    "population_proper": "1778"
  }, 
  {
    "City": "Komuniga", 
    "lat": "41.8000", 
    "lng": "25.2330", 
    "country": "Bulgaria", 
    "iso2": "BG", 
    "admin_name": "Kardzhali", 
    "capital": "", 
    "population": "1777", 
    "population_proper": "1777"
  }, 
  {
    "City": "Gruevo", 
    "lat": "41.5661", 
    "lng": "25.4055", 
    "country": "Bulgaria", 
    "iso2": "BG", 
    "admin_name": "Kardzhali", 
    "capital": "", 
    "population": "1773", 
    "population_proper": "1773"
  }, 
  {
    "City": "Asenovtsi", 
    "lat": "43.3167", 
    "lng": "25.1000", 
    "country": "Bulgaria", 
    "iso2": "BG", 
    "admin_name": "Pleven", 
    "capital": "", 
    "population": "1769", 
    "population_proper": "1769"
  }, 
  {
    "City": "Mortagonovo", 
    "lat": "43.5167", 
    "lng": "26.6500", 
    "country": "Bulgaria", 
    "iso2": "BG", 
    "admin_name": "Razgrad", 
    "capital": "", 
    "population": "1767", 
    "population_proper": "1767"
  }, 
  {
    "City": "Antonovo", 
    "lat": "43.1500", 
    "lng": "26.1667", 
    "country": "Bulgaria", 
    "iso2": "BG", 
    "admin_name": "Targovishte", 
    "capital": "", 
    "population": "1752", 
    "population_proper": "1752"
  }, 
  {
    "City": "Karnalovo", 
    "lat": "41.4634", 
    "lng": "23.2236", 
    "country": "Bulgaria", 
    "iso2": "BG", 
    "admin_name": "Blagoevgrad", 
    "capital": "", 
    "population": "1744", 
    "population_proper": "1744"
  }, 
  {
    "City": "Iskrets", 
    "lat": "42.9833", 
    "lng": "23.2500", 
    "country": "Bulgaria", 
    "iso2": "BG", 
    "admin_name": "Sofia", 
    "capital": "", 
    "population": "1743", 
    "population_proper": "1743"
  }, 
  {
    "City": "Gorna Mitropolia", 
    "lat": "43.4667", 
    "lng": "24.4500", 
    "country": "Bulgaria", 
    "iso2": "BG", 
    "admin_name": "Pleven", 
    "capital": "", 
    "population": "1740", 
    "population_proper": "1740"
  }, 
  {
    "City": "Zgorigrad", 
    "lat": "43.1801", 
    "lng": "23.5169", 
    "country": "Bulgaria", 
    "iso2": "BG", 
    "admin_name": "Vratsa", 
    "capital": "", 
    "population": "1737", 
    "population_proper": "1737"
  }, 
  {
    "City": "Brezovo", 
    "lat": "42.3488", 
    "lng": "25.0768", 
    "country": "Bulgaria", 
    "iso2": "BG", 
    "admin_name": "Plovdiv", 
    "capital": "", 
    "population": "1735", 
    "population_proper": "1735"
  }, 
  {
    "City": "Izgrev", 
    "lat": "43.5833", 
    "lng": "27.0000", 
    "country": "Bulgaria", 
    "iso2": "BG", 
    "admin_name": "Shumen", 
    "capital": "", 
    "population": "1734", 
    "population_proper": "1734"
  }, 
  {
    "City": "Vakarel", 
    "lat": "42.5500", 
    "lng": "23.7167", 
    "country": "Bulgaria", 
    "iso2": "BG", 
    "admin_name": "Sofia", 
    "capital": "", 
    "population": "1730", 
    "population_proper": "1730"
  }, 
  {
    "City": "Belogradets", 
    "lat": "43.3521", 
    "lng": "27.3312", 
    "country": "Bulgaria", 
    "iso2": "BG", 
    "admin_name": "Varna", 
    "capital": "", 
    "population": "1729", 
    "population_proper": "1729"
  }, 
  {
    "City": "Popitsa", 
    "lat": "43.4271", 
    "lng": "23.9559", 
    "country": "Bulgaria", 
    "iso2": "BG", 
    "admin_name": "Vratsa", 
    "capital": "", 
    "population": "1728", 
    "population_proper": "1728"
  }, 
  {
    "City": "Seliminovo", 
    "lat": "42.6500", 
    "lng": "26.1500", 
    "country": "Bulgaria", 
    "iso2": "BG", 
    "admin_name": "Sliven", 
    "capital": "", 
    "population": "1727", 
    "population_proper": "1727"
  }, 
  {
    "City": "Karamantsi", 
    "lat": "41.8344", 
    "lng": "25.3294", 
    "country": "Bulgaria", 
    "iso2": "BG", 
    "admin_name": "Haskovo", 
    "capital": "", 
    "population": "1726", 
    "population_proper": "1726"
  }, 
  {
    "City": "Uzundzhovo", 
    "lat": "41.9631", 
    "lng": "25.6558", 
    "country": "Bulgaria", 
    "iso2": "BG", 
    "admin_name": "Haskovo", 
    "capital": "", 
    "population": "1721", 
    "population_proper": "1721"
  }, 
  {
    "City": "Graf Ignatievo", 
    "lat": "42.2833", 
    "lng": "24.7500", 
    "country": "Bulgaria", 
    "iso2": "BG", 
    "admin_name": "Plovdiv", 
    "capital": "", 
    "population": "1715", 
    "population_proper": "1715"
  }, 
  {
    "City": "Stremtsi", 
    "lat": "41.7333", 
    "lng": "25.4167", 
    "country": "Bulgaria", 
    "iso2": "BG", 
    "admin_name": "Kardzhali", 
    "capital": "", 
    "population": "1711", 
    "population_proper": "1711"
  }, 
  {
    "City": "Busmantsi", 
    "lat": "42.6833", 
    "lng": "23.4333", 
    "country": "Bulgaria", 
    "iso2": "BG", 
    "admin_name": "Sofia-Grad", 
    "capital": "", 
    "population": "1710", 
    "population_proper": "1710"
  }, 
  {
    "City": "Merichleri", 
    "lat": "42.1329", 
    "lng": "25.4993", 
    "country": "Bulgaria", 
    "iso2": "BG", 
    "admin_name": "Haskovo", 
    "capital": "", 
    "population": "1709", 
    "population_proper": "1709"
  }, 
  {
    "City": "Sashevo", 
    "lat": "43.3014", 
    "lng": "25.6497", 
    "country": "Bulgaria", 
    "iso2": "BG", 
    "admin_name": "Veliko Tarnovo", 
    "capital": "", 
    "population": "1709", 
    "population_proper": "1709"
  }, 
  {
    "City": "Medkovets", 
    "lat": "43.6333", 
    "lng": "23.1833", 
    "country": "Bulgaria", 
    "iso2": "BG", 
    "admin_name": "Montana", 
    "capital": "minor", 
    "population": "1706", 
    "population_proper": "1706"
  }, 
  {
    "City": "Mogilyane", 
    "lat": "41.3667", 
    "lng": "25.2333", 
    "country": "Bulgaria", 
    "iso2": "BG", 
    "admin_name": "Kardzhali", 
    "capital": "", 
    "population": "1701", 
    "population_proper": "1701"
  }, 
  {
    "City": "Golesh", 
    "lat": "43.9500", 
    "lng": "27.6167", 
    "country": "Bulgaria", 
    "iso2": "BG", 
    "admin_name": "Silistra", 
    "capital": "", 
    "population": "1700", 
    "population_proper": "1700"
  }, 
  {
    "City": "Lesnovo", 
    "lat": "42.6333", 
    "lng": "23.6333", 
    "country": "Bulgaria", 
    "iso2": "BG", 
    "admin_name": "Sofia", 
    "capital": "", 
    "population": "1690", 
    "population_proper": "1690"
  },